<?xml version="1.0" encoding="UTF-8"?>
<kml xmlns="http://www.opengis.net/kml/2.2" 
	xmlns:atom="http://www.w3.org/2005/Atom" 
	xmlns:gx="http://www.google.com/kml/ext/2.2" 
	>
	<Document>
		<name>OvitalMap_20180918_085209</name>
		<Folder>
			<name>5A景区（250家）</name>
			<Folder>
				<name>第1批66家（2007年）</name>
				<Placemark>
					<name>故宫博物院（正门，5A/1）</name>
					<Style>
						<IconStyle>
							<Icon>
								<href>http://maps.google.com/mapfiles/kml/pushpin/ylw-pushpin.png</href>
							</Icon>
							<color>ffffffff</color>
							<scale>1.0</scale>
						</IconStyle>
					</Style>
					<Point>
						<coordinates>116.39099502,39.91187091,0</coordinates>
					</Point>
				</Placemark>
				<Placemark>
					<name>天坛公园（正门，5A/1）</name>
					<Style>
						<IconStyle>
							<Icon>
								<href>http://maps.google.com/mapfiles/kml/pushpin/ylw-pushpin.png</href>
							</Icon>
							<color>ffffffff</color>
							<scale>1.0</scale>
						</IconStyle>
					</Style>
					<Point>
						<coordinates>116.40704193,39.87295129,0</coordinates>
					</Point>
				</Placemark>
				<Placemark>
					<name>颐和园（正门，5A/1）</name>
					<Style>
						<IconStyle>
							<Icon>
								<href>http://maps.google.com/mapfiles/kml/pushpin/ylw-pushpin.png</href>
							</Icon>
							<color>ffffffff</color>
							<scale>1.0</scale>
						</IconStyle>
					</Style>
					<Point>
						<coordinates>116.27537703,39.99664935,0</coordinates>
					</Point>
				</Placemark>
				<Placemark>
					<name>八达岭-慕田峪长城（八达岭正门，5A/1）</name>
					<Style>
						<IconStyle>
							<Icon>
								<href>http://maps.google.com/mapfiles/kml/pushpin/ylw-pushpin.png</href>
							</Icon>
							<color>ffffffff</color>
							<scale>1.0</scale>
						</IconStyle>
					</Style>
					<Point>
						<coordinates>116.00159637,40.35637941,0</coordinates>
					</Point>
				</Placemark>
				<Placemark>
					<name>天津古文化街旅游区（津门故里）（南正门，5A/1）</name>
					<Style>
						<IconStyle>
							<Icon>
								<href>http://maps.google.com/mapfiles/kml/pushpin/ylw-pushpin.png</href>
							</Icon>
							<color>ffffffff</color>
							<scale>1.0</scale>
						</IconStyle>
					</Style>
					<Point>
						<coordinates>117.18657633,39.14048440,0</coordinates>
					</Point>
				</Placemark>
				<Placemark>
					<name>天津盘山风景名胜区（正门，5A/1）</name>
					<Style>
						<IconStyle>
							<Icon>
								<href>http://maps.google.com/mapfiles/kml/pushpin/ylw-pushpin.png</href>
							</Icon>
							<color>ffffffff</color>
							<scale>1.0</scale>
						</IconStyle>
					</Style>
					<Point>
						<coordinates>117.26832188,40.07934099,0</coordinates>
					</Point>
				</Placemark>
				<Placemark>
					<name>秦皇岛山海关景区（正门，5A/1）（摘牌）</name>
					<Style>
						<IconStyle>
							<Icon>
								<href>http://maps.google.com/mapfiles/kml/pushpin/ylw-pushpin.png</href>
							</Icon>
							<color>ffffffff</color>
							<scale>1.0</scale>
						</IconStyle>
					</Style>
					<Point>
						<coordinates>119.75266282,40.00863700,0</coordinates>
					</Point>
				</Placemark>
				<Placemark>
					<name>保定安新白洋淀景区（主入口，5A/1）（口评差）</name>
					<Style>
						<IconStyle>
							<Icon>
								<href>http://maps.google.com/mapfiles/kml/pushpin/ylw-pushpin.png</href>
							</Icon>
							<color>ffffffff</color>
							<scale>1.0</scale>
						</IconStyle>
					</Style>
					<Point>
						<coordinates>115.96285560,38.94083708,0</coordinates>
					</Point>
				</Placemark>
				<Placemark>
					<name>承德避暑山庄及周围寺庙景区（正门，5A/1）</name>
					<Style>
						<IconStyle>
							<Icon>
								<href>http://maps.google.com/mapfiles/kml/pushpin/ylw-pushpin.png</href>
							</Icon>
							<color>ffffffff</color>
							<scale>1.0</scale>
						</IconStyle>
					</Style>
					<Point>
						<coordinates>117.93523716,40.98003263,0</coordinates>
					</Point>
				</Placemark>
				<Placemark>
					<name>大同云冈石窟（正门，5A/1）</name>
					<Style>
						<IconStyle>
							<Icon>
								<href>http://maps.google.com/mapfiles/kml/pushpin/ylw-pushpin.png</href>
							</Icon>
							<color>ffffffff</color>
							<scale>1.0</scale>
						</IconStyle>
					</Style>
					<Point>
						<coordinates>113.13734218,40.10822831,0</coordinates>
					</Point>
				</Placemark>
				<Placemark>
					<name>忻州五台山风景名胜区（售票口，5A/1）</name>
					<Style>
						<IconStyle>
							<Icon>
								<href>http://maps.google.com/mapfiles/kml/pushpin/ylw-pushpin.png</href>
							</Icon>
							<color>ffffffff</color>
							<scale>1.0</scale>
						</IconStyle>
					</Style>
					<Point>
						<coordinates>113.58971666,39.00672105,0</coordinates>
					</Point>
				</Placemark>
				<Placemark>
					<name>沈阳市植物园（世博园）（正门，5A/1）</name>
					<Style>
						<IconStyle>
							<Icon>
								<href>http://maps.google.com/mapfiles/kml/pushpin/ylw-pushpin.png</href>
							</Icon>
							<color>ffffffff</color>
							<scale>1.0</scale>
						</IconStyle>
					</Style>
					<Point>
						<coordinates>123.64295977,41.86682660,0</coordinates>
					</Point>
				</Placemark>
				<Placemark>
					<name>大连老虎滩海洋公园-海洋极地馆（正门，5A/1）</name>
					<Style>
						<IconStyle>
							<Icon>
								<href>http://maps.google.com/mapfiles/kml/pushpin/ylw-pushpin.png</href>
							</Icon>
							<color>ffffffff</color>
							<scale>1.0</scale>
						</IconStyle>
					</Style>
					<Point>
						<coordinates>121.66989376,38.87838016,0</coordinates>
					</Point>
				</Placemark>
				<Placemark>
					<name>长春伪满皇宫博物院（正门，5A/1）</name>
					<Style>
						<IconStyle>
							<Icon>
								<href>http://maps.google.com/mapfiles/kml/pushpin/ylw-pushpin.png</href>
							</Icon>
							<color>ffffffff</color>
							<scale>1.0</scale>
						</IconStyle>
					</Style>
					<Point>
						<coordinates>125.34200831,43.90242544,0</coordinates>
					</Point>
				</Placemark>
				<Placemark>
					<name>长白山景区（主景，5A/1）</name>
					<Style>
						<IconStyle>
							<Icon>
								<href>http://maps.google.com/mapfiles/kml/pushpin/ylw-pushpin.png</href>
							</Icon>
							<color>ffffffff</color>
							<scale>1.0</scale>
						</IconStyle>
					</Style>
					<Point>
						<coordinates>128.05656644,42.00715287,0</coordinates>
					</Point>
				</Placemark>
				<Placemark>
					<name>哈尔滨太阳岛公园（正门，5A/1）</name>
					<Style>
						<IconStyle>
							<Icon>
								<href>http://maps.google.com/mapfiles/kml/pushpin/ylw-pushpin.png</href>
							</Icon>
							<color>ffffffff</color>
							<scale>1.0</scale>
						</IconStyle>
					</Style>
					<Point>
						<coordinates>126.58490960,45.78384057,0</coordinates>
					</Point>
				</Placemark>
				<Placemark>
					<name>上海东方明珠广播电视塔（5A/1）</name>
					<Style>
						<IconStyle>
							<Icon>
								<href>http://maps.google.com/mapfiles/kml/pushpin/ylw-pushpin.png</href>
							</Icon>
							<color>ffffffff</color>
							<scale>1.0</scale>
						</IconStyle>
					</Style>
					<Point>
						<coordinates>121.49520435,31.24181062,0</coordinates>
					</Point>
				</Placemark>
				<Placemark>
					<name>上海野生动物园（正门，5A/1）</name>
					<Style>
						<IconStyle>
							<Icon>
								<href>http://maps.google.com/mapfiles/kml/pushpin/ylw-pushpin.png</href>
							</Icon>
							<color>ffffffff</color>
							<scale>1.0</scale>
						</IconStyle>
					</Style>
					<Point>
						<coordinates>121.71131883,31.05634533,0</coordinates>
					</Point>
				</Placemark>
				<Placemark>
					<name>钟山风景名胜区-中山陵园风景区（主景，5A/1）</name>
					<Style>
						<IconStyle>
							<Icon>
								<href>http://maps.google.com/mapfiles/kml/pushpin/ylw-pushpin.png</href>
							</Icon>
							<color>ffffffff</color>
							<scale>1.0</scale>
						</IconStyle>
					</Style>
					<Point>
						<coordinates>118.84870383,32.05837493,0</coordinates>
					</Point>
				</Placemark>
				<Placemark>
					<name>无锡CCTV三国水浒影视城景区（正门，5A/1）</name>
					<Style>
						<IconStyle>
							<Icon>
								<href>http://maps.google.com/mapfiles/kml/pushpin/ylw-pushpin.png</href>
							</Icon>
							<color>ffffffff</color>
							<scale>1.0</scale>
						</IconStyle>
					</Style>
					<Point>
						<coordinates>120.23387398,31.48631959,0</coordinates>
					</Point>
				</Placemark>
				<Placemark>
					<name>苏州园林景区（拙政园、虎丘、留园）（拙政园正门，5A/1）</name>
					<Style>
						<IconStyle>
							<Icon>
								<href>http://maps.google.com/mapfiles/kml/pushpin/ylw-pushpin.png</href>
							</Icon>
							<color>ffffffff</color>
							<scale>1.0</scale>
						</IconStyle>
					</Style>
					<Point>
						<coordinates>120.62631753,31.32547456,0</coordinates>
					</Point>
				</Placemark>
				<Placemark>
					<name>苏州周庄古镇景区（主入口，5A/1）</name>
					<Style>
						<IconStyle>
							<Icon>
								<href>http://maps.google.com/mapfiles/kml/pushpin/ylw-pushpin.png</href>
							</Icon>
							<color>ffffffff</color>
							<scale>1.0</scale>
						</IconStyle>
					</Style>
					<Point>
						<coordinates>120.84516349,31.11855502,0</coordinates>
					</Point>
				</Placemark>
				<Placemark>
					<name>杭州西湖风景名胜区（主景，5A/1）</name>
					<Style>
						<IconStyle>
							<Icon>
								<href>http://maps.google.com/mapfiles/kml/pushpin/ylw-pushpin.png</href>
							</Icon>
							<color>ffffffff</color>
							<scale>1.0</scale>
						</IconStyle>
					</Style>
					<Point>
						<coordinates>120.13293914,30.25235518,0</coordinates>
					</Point>
				</Placemark>
				<Placemark>
					<name>温州雁荡山风景名胜区（主景路口，5A/1）</name>
					<Style>
						<IconStyle>
							<Icon>
								<href>http://maps.google.com/mapfiles/kml/pushpin/ylw-pushpin.png</href>
							</Icon>
							<color>ffffffff</color>
							<scale>1.0</scale>
						</IconStyle>
					</Style>
					<Point>
						<coordinates>121.10938625,28.37311807,0</coordinates>
					</Point>
				</Placemark>
				<Placemark>
					<name>舟山普陀山风景名胜区（主寺，5A/1）</name>
					<Style>
						<IconStyle>
							<Icon>
								<href>http://maps.google.com/mapfiles/kml/pushpin/ylw-pushpin.png</href>
							</Icon>
							<color>ffffffff</color>
							<scale>1.0</scale>
						</IconStyle>
					</Style>
					<Point>
						<coordinates>122.38258002,29.98716522,0</coordinates>
					</Point>
				</Placemark>
				<Placemark>
					<name>黄山风景区（主入口-南门，5A/1）</name>
					<Style>
						<IconStyle>
							<Icon>
								<href>http://maps.google.com/mapfiles/kml/pushpin/ylw-pushpin.png</href>
							</Icon>
							<color>ffffffff</color>
							<scale>1.0</scale>
						</IconStyle>
					</Style>
					<Point>
						<coordinates>118.18249630,30.09321789,0</coordinates>
					</Point>
				</Placemark>
				<Placemark>
					<name>池州九华山风景区（主入口，5A/1）</name>
					<Style>
						<IconStyle>
							<Icon>
								<href>http://maps.google.com/mapfiles/kml/pushpin/ylw-pushpin.png</href>
							</Icon>
							<color>ffffffff</color>
							<scale>1.0</scale>
						</IconStyle>
					</Style>
					<Point>
						<coordinates>117.79922743,30.48419832,0</coordinates>
					</Point>
				</Placemark>
				<Placemark>
					<name>厦门鼓浪屿风景名胜区（游客码头，5A/1）</name>
					<Style>
						<IconStyle>
							<Icon>
								<href>http://maps.google.com/mapfiles/kml/pushpin/ylw-pushpin.png</href>
							</Icon>
							<color>ffffffff</color>
							<scale>1.0</scale>
						</IconStyle>
					</Style>
					<Point>
						<coordinates>118.06447773,24.45264412,0</coordinates>
					</Point>
				</Placemark>
				<Placemark>
					<name>南平武夷山风景名胜区（南门，5A/1）</name>
					<Style>
						<IconStyle>
							<Icon>
								<href>http://maps.google.com/mapfiles/kml/pushpin/ylw-pushpin.png</href>
							</Icon>
							<color>ffffffff</color>
							<scale>1.0</scale>
						</IconStyle>
					</Style>
					<Point>
						<coordinates>117.98095453,27.62817930,0</coordinates>
					</Point>
				</Placemark>
				<Placemark>
					<name>九江庐山风景旅游区（牯岭镇，5A/1）</name>
					<Style>
						<IconStyle>
							<Icon>
								<href>http://maps.google.com/mapfiles/kml/pushpin/ylw-pushpin.png</href>
							</Icon>
							<color>ffffffff</color>
							<scale>1.0</scale>
						</IconStyle>
					</Style>
					<Point>
						<coordinates>115.97901792,29.57106361,0</coordinates>
					</Point>
				</Placemark>
				<Placemark>
					<name>吉安井冈山风景旅游区（茨坪镇入口，5A/1）</name>
					<Style>
						<IconStyle>
							<Icon>
								<href>http://maps.google.com/mapfiles/kml/pushpin/ylw-pushpin.png</href>
							</Icon>
							<color>ffffffff</color>
							<scale>1.0</scale>
						</IconStyle>
					</Style>
					<Point>
						<coordinates>114.15715458,26.58439996,0</coordinates>
					</Point>
				</Placemark>
				<Placemark>
					<name>烟台三仙山-八仙过海-蓬莱阁旅游区（景中，5A/1）</name>
					<Style>
						<IconStyle>
							<Icon>
								<href>http://maps.google.com/mapfiles/kml/pushpin/ylw-pushpin.png</href>
							</Icon>
							<color>ffffffff</color>
							<scale>1.0</scale>
						</IconStyle>
					</Style>
					<Point>
						<coordinates>120.74925116,37.82640643,0</coordinates>
					</Point>
				</Placemark>
				<Placemark>
					<name>济宁曲阜明故城（三孔）旅游区（主入口，5A/1）</name>
					<Style>
						<IconStyle>
							<Icon>
								<href>http://maps.google.com/mapfiles/kml/pushpin/ylw-pushpin.png</href>
							</Icon>
							<color>ffffffff</color>
							<scale>1.0</scale>
						</IconStyle>
					</Style>
					<Point>
						<coordinates>116.98584298,35.59573174,0</coordinates>
					</Point>
				</Placemark>
				<Placemark>
					<name>泰安泰山景区（正门，5A/1）</name>
					<Style>
						<IconStyle>
							<Icon>
								<href>http://maps.google.com/mapfiles/kml/pushpin/ylw-pushpin.png</href>
							</Icon>
							<color>ffffffff</color>
							<scale>1.0</scale>
						</IconStyle>
					</Style>
					<Point>
						<coordinates>117.12174603,36.21077579,0</coordinates>
					</Point>
				</Placemark>
				<Placemark>
					<name>郑州登封市嵩山-少林寺景区（正门，5A/1）</name>
					<Style>
						<IconStyle>
							<Icon>
								<href>http://maps.google.com/mapfiles/kml/pushpin/ylw-pushpin.png</href>
							</Icon>
							<color>ffffffff</color>
							<scale>1.0</scale>
						</IconStyle>
					</Style>
					<Point>
						<coordinates>112.94714631,34.51575718,0</coordinates>
					</Point>
				</Placemark>
				<Placemark>
					<name>洛阳龙门石窟景区（正门，5A/1）</name>
					<Style>
						<IconStyle>
							<Icon>
								<href>http://maps.google.com/mapfiles/kml/pushpin/ylw-pushpin.png</href>
							</Icon>
							<color>ffffffff</color>
							<scale>1.0</scale>
						</IconStyle>
					</Style>
					<Point>
						<coordinates>112.47165225,34.56315305,0</coordinates>
					</Point>
				</Placemark>
				<Placemark>
					<name>焦作云台山-神农山-青天河景区（云台山正门，5A/1）</name>
					<Style>
						<IconStyle>
							<Icon>
								<href>http://maps.google.com/mapfiles/kml/pushpin/ylw-pushpin.png</href>
							</Icon>
							<color>ffffffff</color>
							<scale>1.0</scale>
						</IconStyle>
					</Style>
					<Point>
						<coordinates>113.41910660,35.42225599,0</coordinates>
					</Point>
				</Placemark>
				<Placemark>
					<name>衡阳南岳衡山旅游区（主进口，5A/1）</name>
					<Style>
						<IconStyle>
							<Icon>
								<href>http://maps.google.com/mapfiles/kml/pushpin/ylw-pushpin.png</href>
							</Icon>
							<color>ffffffff</color>
							<scale>1.0</scale>
						</IconStyle>
					</Style>
					<Point>
						<coordinates>112.72555031,27.25560722,0</coordinates>
					</Point>
				</Placemark>
				<Placemark>
					<name>张家界武陵源—天门山旅游区（武陵源正门，5A/1）</name>
					<Style>
						<IconStyle>
							<Icon>
								<href>http://maps.google.com/mapfiles/kml/pushpin/ylw-pushpin.png</href>
							</Icon>
							<color>ffffffff</color>
							<scale>1.0</scale>
						</IconStyle>
					</Style>
					<Point>
						<coordinates>110.53092950,29.35409359,0</coordinates>
					</Point>
				</Placemark>
				<Placemark>
					<name>武汉黄鹤楼公园（主景，5A/1）</name>
					<Style>
						<IconStyle>
							<Icon>
								<href>http://maps.google.com/mapfiles/kml/pushpin/ylw-pushpin.png</href>
							</Icon>
							<color>ffffffff</color>
							<scale>1.0</scale>
						</IconStyle>
					</Style>
					<Point>
						<coordinates>114.29709012,30.54714317,0</coordinates>
					</Point>
				</Placemark>
				<Placemark>
					<name>宜昌三峡大坝旅游区（入口 ,5A/1）</name>
					<Style>
						<IconStyle>
							<Icon>
								<href>http://maps.google.com/mapfiles/kml/pushpin/ylw-pushpin.png</href>
							</Icon>
							<color>ffffffff</color>
							<scale>1.0</scale>
						</IconStyle>
					</Style>
					<Point>
						<coordinates>111.04681254,30.83758422,0</coordinates>
					</Point>
				</Placemark>
				<Placemark>
					<name>广州长隆旅游度假区（入口，5A/1）</name>
					<Style>
						<IconStyle>
							<Icon>
								<href>http://maps.google.com/mapfiles/kml/pushpin/ylw-pushpin.png</href>
							</Icon>
							<color>ffffffff</color>
							<scale>1.0</scale>
						</IconStyle>
					</Style>
					<Point>
						<coordinates>113.31857476,23.00188954,0</coordinates>
					</Point>
				</Placemark>
				<Placemark>
					<name>深圳华侨城旅游度假区（中点，5A/1）</name>
					<Style>
						<IconStyle>
							<Icon>
								<href>http://maps.google.com/mapfiles/kml/pushpin/ylw-pushpin.png</href>
							</Icon>
							<color>ffffffff</color>
							<scale>1.0</scale>
						</IconStyle>
					</Style>
					<Point>
						<coordinates>113.97696563,22.53661375,0</coordinates>
					</Point>
				</Placemark>
				<Placemark>
					<name>桂林漓江景区（竹筏主起点-杨堤，5A/1）</name>
					<Style>
						<IconStyle>
							<Icon>
								<href>http://maps.google.com/mapfiles/kml/pushpin/ylw-pushpin.png</href>
							</Icon>
							<color>ffffffff</color>
							<scale>1.0</scale>
						</IconStyle>
					</Style>
					<Point>
						<coordinates>110.44964625,24.99555611,0</coordinates>
					</Point>
				</Placemark>
				<Placemark>
					<name>桂林乐满地度假世界（正门，5A/1）</name>
					<Style>
						<IconStyle>
							<Icon>
								<href>http://maps.google.com/mapfiles/kml/pushpin/ylw-pushpin.png</href>
							</Icon>
							<color>ffffffff</color>
							<scale>1.0</scale>
						</IconStyle>
					</Style>
					<Point>
						<coordinates>110.67194275,25.58362498,0</coordinates>
					</Point>
				</Placemark>
				<Placemark>
					<name>三亚南山文化旅游区（正门,5A/1）</name>
					<Style>
						<IconStyle>
							<Icon>
								<href>http://maps.google.com/mapfiles/kml/pushpin/ylw-pushpin.png</href>
							</Icon>
							<color>ffffffff</color>
							<scale>1.0</scale>
						</IconStyle>
					</Style>
					<Point>
						<coordinates>109.20555503,18.30338683,0</coordinates>
					</Point>
				</Placemark>
				<Placemark>
					<name>三亚南山大小洞天旅游区（入口，5A/1）</name>
					<Style>
						<IconStyle>
							<Icon>
								<href>http://maps.google.com/mapfiles/kml/pushpin/ylw-pushpin.png</href>
							</Icon>
							<color>ffffffff</color>
							<scale>1.0</scale>
						</IconStyle>
					</Style>
					<Point>
						<coordinates>109.15023959,18.30624844,0</coordinates>
					</Point>
				</Placemark>
				<Placemark>
					<name>青城山都江堰风景名胜区（前山门，5A/1）</name>
					<Style>
						<IconStyle>
							<Icon>
								<href>http://maps.google.com/mapfiles/kml/pushpin/ylw-pushpin.png</href>
							</Icon>
							<color>ffffffff</color>
							<scale>1.0</scale>
						</IconStyle>
					</Style>
					<Point>
						<coordinates>103.57032244,30.89998234,0</coordinates>
					</Point>
				</Placemark>
				<Placemark>
					<name>乐山峨眉山景区（五显冈，5A/1）</name>
					<Style>
						<IconStyle>
							<Icon>
								<href>http://maps.google.com/mapfiles/kml/pushpin/ylw-pushpin.png</href>
							</Icon>
							<color>ffffffff</color>
							<scale>1.0</scale>
						</IconStyle>
					</Style>
					<Point>
						<coordinates>103.40553855,29.57847391,0</coordinates>
					</Point>
				</Placemark>
				<Placemark>
					<name>阿坝九寨沟旅游景区（正门，5A/1）</name>
					<Style>
						<IconStyle>
							<Icon>
								<href>http://maps.google.com/mapfiles/kml/pushpin/ylw-pushpin.png</href>
							</Icon>
							<color>ffffffff</color>
							<scale>1.0</scale>
						</IconStyle>
					</Style>
					<Point>
						<coordinates>103.91706840,33.26839728,0</coordinates>
					</Point>
				</Placemark>
				<Placemark>
					<name>安顺黄果树大瀑布景区（入口，5A/1）</name>
					<Style>
						<IconStyle>
							<Icon>
								<href>http://maps.google.com/mapfiles/kml/pushpin/ylw-pushpin.png</href>
							</Icon>
							<color>ffffffff</color>
							<scale>1.0</scale>
						</IconStyle>
					</Style>
					<Point>
						<coordinates>105.66373335,25.98413737,0</coordinates>
					</Point>
				</Placemark>
				<Placemark>
					<name>安顺龙宫景区（入口，5A/1）</name>
					<Style>
						<IconStyle>
							<Icon>
								<href>http://maps.google.com/mapfiles/kml/pushpin/ylw-pushpin.png</href>
							</Icon>
							<color>ffffffff</color>
							<scale>1.0</scale>
						</IconStyle>
					</Style>
					<Point>
						<coordinates>105.88561966,26.09552961,0</coordinates>
					</Point>
				</Placemark>
				<Placemark>
					<name>昆明石林风景区（正门，5A/1）</name>
					<Style>
						<IconStyle>
							<Icon>
								<href>http://maps.google.com/mapfiles/kml/pushpin/ylw-pushpin.png</href>
							</Icon>
							<color>ffffffff</color>
							<scale>1.0</scale>
						</IconStyle>
					</Style>
					<Point>
						<coordinates>103.32381305,24.82418284,0</coordinates>
					</Point>
				</Placemark>
				<Placemark>
					<name>丽江玉龙雪山景区（入口，5A/1）</name>
					<Style>
						<IconStyle>
							<Icon>
								<href>http://maps.google.com/mapfiles/kml/pushpin/ylw-pushpin.png</href>
							</Icon>
							<color>ffffffff</color>
							<scale>1.0</scale>
						</IconStyle>
					</Style>
					<Point>
						<coordinates>100.25450773,27.10149647,0</coordinates>
					</Point>
				</Placemark>
				<Placemark>
					<name>重庆大足石刻景区（宝顶山石刻，5A/1）</name>
					<Style>
						<IconStyle>
							<Icon>
								<href>http://maps.google.com/mapfiles/kml/pushpin/ylw-pushpin.png</href>
							</Icon>
							<color>ffffffff</color>
							<scale>1.0</scale>
						</IconStyle>
					</Style>
					<Point>
						<coordinates>105.79146893,29.74850408,0</coordinates>
					</Point>
				</Placemark>
				<Placemark>
					<name>重庆巫山小三峡-小小三峡（景中，5A/1）</name>
					<Style>
						<IconStyle>
							<Icon>
								<href>http://maps.google.com/mapfiles/kml/pushpin/ylw-pushpin.png</href>
							</Icon>
							<color>ffffffff</color>
							<scale>1.0</scale>
						</IconStyle>
					</Style>
					<Point>
						<coordinates>109.85966794,31.22232975,0</coordinates>
					</Point>
				</Placemark>
				<Placemark>
					<name>西安秦始皇兵马俑博物馆（正门，5A/1）</name>
					<Style>
						<IconStyle>
							<Icon>
								<href>http://maps.google.com/mapfiles/kml/pushpin/ylw-pushpin.png</href>
							</Icon>
							<color>ffffffff</color>
							<scale>1.0</scale>
						</IconStyle>
					</Style>
					<Point>
						<coordinates>109.27797513,34.39007219,0</coordinates>
					</Point>
				</Placemark>
				<Placemark>
					<name>西安华清池景区（正门，5A/1）</name>
					<Style>
						<IconStyle>
							<Icon>
								<href>http://maps.google.com/mapfiles/kml/pushpin/ylw-pushpin.png</href>
							</Icon>
							<color>ffffffff</color>
							<scale>1.0</scale>
						</IconStyle>
					</Style>
					<Point>
						<coordinates>109.20753282,34.36611277,0</coordinates>
					</Point>
				</Placemark>
				<Placemark>
					<name>延安黄帝陵景区（正门，5A/1）</name>
					<Style>
						<IconStyle>
							<Icon>
								<href>http://maps.google.com/mapfiles/kml/pushpin/ylw-pushpin.png</href>
							</Icon>
							<color>ffffffff</color>
							<scale>1.0</scale>
						</IconStyle>
					</Style>
					<Point>
						<coordinates>109.26882093,35.58252164,0</coordinates>
					</Point>
				</Placemark>
				<Placemark>
					<name>嘉峪关文物景区（入口，5A/1）</name>
					<Style>
						<IconStyle>
							<Icon>
								<href>http://maps.google.com/mapfiles/kml/pushpin/ylw-pushpin.png</href>
							</Icon>
							<color>ffffffff</color>
							<scale>1.0</scale>
						</IconStyle>
					</Style>
					<Point>
						<coordinates>98.22382390,39.80274721,0</coordinates>
					</Point>
				</Placemark>
				<Placemark>
					<name>平凉崆峒山风景名胜区（东门，5A/1）</name>
					<Style>
						<IconStyle>
							<Icon>
								<href>http://maps.google.com/mapfiles/kml/pushpin/ylw-pushpin.png</href>
							</Icon>
							<color>ffffffff</color>
							<scale>1.0</scale>
						</IconStyle>
					</Style>
					<Point>
						<coordinates>106.52011945,35.56124225,0</coordinates>
					</Point>
				</Placemark>
				<Placemark>
					<name>石嘴山沙湖旅游景区（大门，5A/1）</name>
					<Style>
						<IconStyle>
							<Icon>
								<href>http://maps.google.com/mapfiles/kml/pushpin/ylw-pushpin.png</href>
							</Icon>
							<color>ffffffff</color>
							<scale>1.0</scale>
						</IconStyle>
					</Style>
					<Point>
						<coordinates>106.38601002,38.82361139,0</coordinates>
					</Point>
				</Placemark>
				<Placemark>
					<name>宁夏沙坡头国家级自然保护区（景中，5A/1）</name>
					<Style>
						<IconStyle>
							<Icon>
								<href>http://maps.google.com/mapfiles/kml/pushpin/ylw-pushpin.png</href>
							</Icon>
							<color>ffffffff</color>
							<scale>1.0</scale>
						</IconStyle>
					</Style>
					<Point>
						<coordinates>104.99640038,37.46470690,0</coordinates>
					</Point>
				</Placemark>
				<Placemark>
					<name>天山天池风景名胜区（景中，5A/1）</name>
					<Style>
						<IconStyle>
							<Icon>
								<href>http://maps.google.com/mapfiles/kml/pushpin/ylw-pushpin.png</href>
							</Icon>
							<color>ffffffff</color>
							<scale>1.0</scale>
						</IconStyle>
					</Style>
					<Point>
						<coordinates>88.12465921,43.89361621,0</coordinates>
					</Point>
				</Placemark>
				<Placemark>
					<name>吐鲁番葡萄沟风景区（大门.5A/1）</name>
					<Style>
						<IconStyle>
							<Icon>
								<href>http://maps.google.com/mapfiles/kml/pushpin/ylw-pushpin.png</href>
							</Icon>
							<color>ffffffff</color>
							<scale>1.0</scale>
						</IconStyle>
					</Style>
					<Point>
						<coordinates>89.21590273,42.96973271,0</coordinates>
					</Point>
				</Placemark>
				<Placemark>
					<name>阿勒泰地区喀纳斯景区（景中，5A/1）</name>
					<Style>
						<IconStyle>
							<Icon>
								<href>http://maps.google.com/mapfiles/kml/pushpin/ylw-pushpin.png</href>
							</Icon>
							<color>ffffffff</color>
							<scale>1.0</scale>
						</IconStyle>
					</Style>
					<Point>
						<coordinates>87.00701348,48.73682863,0</coordinates>
					</Point>
				</Placemark>
			</Folder>
			<Folder>
				<name>第2批1家（2009年）</name>
				<Placemark>
					<name>无锡灵山大佛景区（正门，5A/2）</name>
					<Style>
						<IconStyle>
							<Icon>
								<href>http://maps.google.com/mapfiles/kml/pushpin/ylw-pushpin.png</href>
							</Icon>
							<color>ffffffff</color>
							<scale>1.0</scale>
						</IconStyle>
					</Style>
					<Point>
						<coordinates>120.09827367,31.42214294,0</coordinates>
					</Point>
				</Placemark>
			</Folder>
			<Folder>
				<name>第3批9家（2010年）</name>
				<Placemark>
					<name>苏州同里古镇（入口，5A/3）</name>
					<Style>
						<IconStyle>
							<Icon>
								<href>http://maps.google.com/mapfiles/kml/pushpin/ylw-pushpin.png</href>
							</Icon>
							<color>ffffffff</color>
							<scale>1.0</scale>
						</IconStyle>
					</Style>
					<Point>
						<coordinates>120.71580682,31.16197046,0</coordinates>
					</Point>
				</Placemark>
				<Placemark>
					<name>南京夫子庙-秦淮河风光带景区（景中，5A/3）</name>
					<Style>
						<IconStyle>
							<Icon>
								<href>http://maps.google.com/mapfiles/kml/pushpin/ylw-pushpin.png</href>
							</Icon>
							<color>ffffffff</color>
							<scale>1.0</scale>
						</IconStyle>
					</Style>
					<Point>
						<coordinates>118.78434626,32.02199731,0</coordinates>
					</Point>
				</Placemark>
				<Placemark>
					<name>常州环球恐龙城休闲旅游区（中华恐龙园、恐龙谷温泉）（正门，5A/3）</name>
					<Style>
						<IconStyle>
							<Icon>
								<href>http://maps.google.com/mapfiles/kml/pushpin/ylw-pushpin.png</href>
							</Icon>
							<color>ffffffff</color>
							<scale>1.0</scale>
						</IconStyle>
					</Style>
					<Point>
						<coordinates>119.99344867,31.82787512,0</coordinates>
					</Point>
				</Placemark>
				<Placemark>
					<name>扬州瘦西湖景区（正门，5A/3）</name>
					<Style>
						<IconStyle>
							<Icon>
								<href>http://maps.google.com/mapfiles/kml/pushpin/ylw-pushpin.png</href>
							</Icon>
							<color>ffffffff</color>
							<scale>1.0</scale>
						</IconStyle>
					</Style>
					<Point>
						<coordinates>119.42069563,32.40385680,0</coordinates>
					</Point>
				</Placemark>
				<Placemark>
					<name>杭州淳安千岛湖风景区（游船码头，5A/3）</name>
					<Style>
						<IconStyle>
							<Icon>
								<href>http://maps.google.com/mapfiles/kml/pushpin/ylw-pushpin.png</href>
							</Icon>
							<color>ffffffff</color>
							<scale>1.0</scale>
						</IconStyle>
					</Style>
					<Point>
						<coordinates>119.00701191,29.59645541,0</coordinates>
					</Point>
				</Placemark>
				<Placemark>
					<name>嘉兴桐乡乌镇古镇（西栅入口，5A/3）</name>
					<Style>
						<IconStyle>
							<Icon>
								<href>http://maps.google.com/mapfiles/kml/pushpin/ylw-pushpin.png</href>
							</Icon>
							<color>ffffffff</color>
							<scale>1.0</scale>
						</IconStyle>
					</Style>
					<Point>
						<coordinates>120.48507162,30.75031562,0</coordinates>
					</Point>
				</Placemark>
				<Placemark>
					<name>宁波奉化溪口雪窦山-滕头旅游景区（主景，5A/3）</name>
					<Style>
						<IconStyle>
							<Icon>
								<href>http://maps.google.com/mapfiles/kml/pushpin/ylw-pushpin.png</href>
							</Icon>
							<color>ffffffff</color>
							<scale>1.0</scale>
						</IconStyle>
					</Style>
					<Point>
						<coordinates>121.21765966,29.68639566,0</coordinates>
					</Point>
				</Placemark>
				<Placemark>
					<name>金华东阳横店影视城景区（秦王宫，5A/3）</name>
					<Style>
						<IconStyle>
							<Icon>
								<href>http://maps.google.com/mapfiles/kml/pushpin/ylw-pushpin.png</href>
							</Icon>
							<color>ffffffff</color>
							<scale>1.0</scale>
						</IconStyle>
					</Style>
					<Point>
						<coordinates>120.30938205,29.13821327,0</coordinates>
					</Point>
				</Placemark>
				<Placemark>
					<name>上海科技馆（进口，5A/3）</name>
					<Style>
						<IconStyle>
							<Icon>
								<href>http://maps.google.com/mapfiles/kml/pushpin/ylw-pushpin.png</href>
							</Icon>
							<color>ffffffff</color>
							<scale>1.0</scale>
						</IconStyle>
					</Style>
					<Point>
						<coordinates>121.53739990,31.22076572,0</coordinates>
					</Point>
				</Placemark>
			</Folder>
			<Folder>
				<name>第4~8批43家（2011年）</name>
				<Folder>
					<name>第4批19家</name>
					<Placemark>
						<name>华阴华山景区（华山门，5A/4）</name>
						<Style>
							<IconStyle>
								<Icon>
									<href>http://maps.google.com/mapfiles/kml/pushpin/ylw-pushpin.png</href>
								</Icon>
								<color>ffffffff</color>
								<scale>1.0</scale>
							</IconStyle>
						</Style>
						<Point>
							<coordinates>110.07796160,34.52264526,0</coordinates>
						</Point>
					</Placemark>
					<Placemark>
						<name>西安大雁塔—大唐芙蓉园景区（正门，5A/4）</name>
						<Style>
							<IconStyle>
								<Icon>
									<href>http://maps.google.com/mapfiles/kml/pushpin/ylw-pushpin.png</href>
								</Icon>
								<color>ffffffff</color>
								<scale>1.0</scale>
							</IconStyle>
						</Style>
						<Point>
							<coordinates>108.96553383,34.21324897,0</coordinates>
						</Point>
					</Placemark>
					<Placemark>
						<name>烟台龙口南山景区（正门，5A/4）</name>
						<Style>
							<IconStyle>
								<Icon>
									<href>http://maps.google.com/mapfiles/kml/pushpin/ylw-pushpin.png</href>
								</Icon>
								<color>ffffffff</color>
								<scale>1.0</scale>
							</IconStyle>
						</Style>
						<Point>
							<coordinates>120.46823359,37.57262569,0</coordinates>
						</Point>
					</Placemark>
					<Placemark>
						<name>威海刘公岛景区（码头，5A/4）</name>
						<Style>
							<IconStyle>
								<Icon>
									<href>http://maps.google.com/mapfiles/kml/pushpin/ylw-pushpin.png</href>
								</Icon>
								<color>ffffffff</color>
								<scale>1.0</scale>
							</IconStyle>
						</Style>
						<Point>
							<coordinates>122.17794406,37.49892665,0</coordinates>
						</Point>
					</Placemark>
					<Placemark>
						<name>青岛崂山风景区（主入口，5A/4）</name>
						<Style>
							<IconStyle>
								<Icon>
									<href>http://maps.google.com/mapfiles/kml/pushpin/ylw-pushpin.png</href>
								</Icon>
								<color>ffffffff</color>
								<scale>1.0</scale>
							</IconStyle>
						</Style>
						<Point>
							<coordinates>120.58277620,36.13225622,0</coordinates>
						</Point>
					</Placemark>
					<Placemark>
						<name>洛阳嵩县白云山景区（大门，5A/4）</name>
						<Style>
							<IconStyle>
								<Icon>
									<href>http://maps.google.com/mapfiles/kml/pushpin/ylw-pushpin.png</href>
								</Icon>
								<color>ffffffff</color>
								<scale>1.0</scale>
							</IconStyle>
						</Style>
						<Point>
							<coordinates>111.86830043,33.74022813,0</coordinates>
						</Point>
					</Placemark>
					<Placemark>
						<name>开封清明上河园景区（正门，5A/4）</name>
						<Style>
							<IconStyle>
								<Icon>
									<href>http://maps.google.com/mapfiles/kml/pushpin/ylw-pushpin.png</href>
								</Icon>
								<color>ffffffff</color>
								<scale>1.0</scale>
							</IconStyle>
						</Style>
						<Point>
							<coordinates>114.33775333,34.80843698,0</coordinates>
						</Point>
					</Placemark>
					<Placemark>
						<name>安阳殷墟景区（博物馆正门，5A/4）</name>
						<Style>
							<IconStyle>
								<Icon>
									<href>http://maps.google.com/mapfiles/kml/pushpin/ylw-pushpin.png</href>
								</Icon>
								<color>ffffffff</color>
								<scale>1.0</scale>
							</IconStyle>
						</Style>
						<Point>
							<coordinates>114.31893088,36.11983336,0</coordinates>
						</Point>
					</Placemark>
					<Placemark>
						<name>野三坡风景名胜区（百里峡正门，5A/4）</name>
						<Style>
							<IconStyle>
								<Icon>
									<href>http://maps.google.com/mapfiles/kml/pushpin/ylw-pushpin.png</href>
								</Icon>
								<color>ffffffff</color>
								<scale>1.0</scale>
							</IconStyle>
						</Style>
						<Point>
							<coordinates>115.37911209,39.66884426,0</coordinates>
						</Point>
					</Placemark>
					<Placemark>
						<name>银川镇北堡西部影视城（正门，5A/4）</name>
						<Style>
							<IconStyle>
								<Icon>
									<href>http://maps.google.com/mapfiles/kml/pushpin/ylw-pushpin.png</href>
								</Icon>
								<color>ffffffff</color>
								<scale>1.0</scale>
							</IconStyle>
						</Style>
						<Point>
							<coordinates>106.06502731,38.61546442,0</coordinates>
						</Point>
					</Placemark>
					<Placemark>
						<name>伊犁新源县那拉提旅游风景区（草原，5A/4）</name>
						<Style>
							<IconStyle>
								<Icon>
									<href>http://maps.google.com/mapfiles/kml/pushpin/ylw-pushpin.png</href>
								</Icon>
								<color>ffffffff</color>
								<scale>1.0</scale>
							</IconStyle>
						</Style>
						<Point>
							<coordinates>83.98469553,43.23086384,0</coordinates>
						</Point>
					</Placemark>
					<Placemark>
						<name>大连金石滩景区（景中，5A/4）</name>
						<Style>
							<IconStyle>
								<Icon>
									<href>http://maps.google.com/mapfiles/kml/pushpin/ylw-pushpin.png</href>
								</Icon>
								<color>ffffffff</color>
								<scale>1.0</scale>
							</IconStyle>
						</Style>
						<Point>
							<coordinates>122.00189017,39.07705503,0</coordinates>
						</Point>
					</Placemark>
					<Placemark>
						<name>黑河五大连池景区（老黑山入口，5A/4）</name>
						<Style>
							<IconStyle>
								<Icon>
									<href>http://maps.google.com/mapfiles/kml/pushpin/ylw-pushpin.png</href>
								</Icon>
								<color>ffffffff</color>
								<scale>1.0</scale>
							</IconStyle>
						</Style>
						<Point>
							<coordinates>126.10823465,48.68465666,0</coordinates>
						</Point>
					</Placemark>
					<Placemark>
						<name>牡丹江宁安市镜泊湖景区（北湖入口，5A/4）</name>
						<Style>
							<IconStyle>
								<Icon>
									<href>http://maps.google.com/mapfiles/kml/pushpin/ylw-pushpin.png</href>
								</Icon>
								<color>ffffffff</color>
								<scale>1.0</scale>
							</IconStyle>
						</Style>
						<Point>
							<coordinates>128.94753106,44.06087658,0</coordinates>
						</Point>
					</Placemark>
					<Placemark>
						<name>长春净月潭景区（正门，5A/4）</name>
						<Style>
							<IconStyle>
								<Icon>
									<href>http://maps.google.com/mapfiles/kml/pushpin/ylw-pushpin.png</href>
								</Icon>
								<color>ffffffff</color>
								<scale>1.0</scale>
							</IconStyle>
						</Style>
						<Point>
							<coordinates>125.44647407,43.79895867,0</coordinates>
						</Point>
					</Placemark>
					<Placemark>
						<name>晋城阳城县皇城相府生态文化旅游区（入口，5A/4）</name>
						<Style>
							<IconStyle>
								<Icon>
									<href>http://maps.google.com/mapfiles/kml/pushpin/ylw-pushpin.png</href>
								</Icon>
								<color>ffffffff</color>
								<scale>1.0</scale>
							</IconStyle>
						</Style>
						<Point>
							<coordinates>112.57603622,35.51438230,0</coordinates>
						</Point>
					</Placemark>
					<Placemark>
						<name>天水麦积山景区（正门，5A/4）</name>
						<Style>
							<IconStyle>
								<Icon>
									<href>http://maps.google.com/mapfiles/kml/pushpin/ylw-pushpin.png</href>
								</Icon>
								<color>ffffffff</color>
								<scale>1.0</scale>
							</IconStyle>
						</Style>
						<Point>
							<coordinates>105.99806656,34.36690756,0</coordinates>
						</Point>
					</Placemark>
					<Placemark>
						<name>鄂尔多斯达拉特旗响沙湾旅游景区（正门，5A/4）</name>
						<Style>
							<IconStyle>
								<Icon>
									<href>http://maps.google.com/mapfiles/kml/pushpin/ylw-pushpin.png</href>
								</Icon>
								<color>ffffffff</color>
								<scale>1.0</scale>
							</IconStyle>
						</Style>
						<Point>
							<coordinates>109.94653095,40.24257294,0</coordinates>
						</Point>
					</Placemark>
					<Placemark>
						<name>鄂尔多斯伊金霍洛旗成吉思汗陵旅游区（正门，5A/4）</name>
						<Style>
							<IconStyle>
								<Icon>
									<href>http://maps.google.com/mapfiles/kml/pushpin/ylw-pushpin.png</href>
								</Icon>
								<color>ffffffff</color>
								<scale>1.0</scale>
							</IconStyle>
						</Style>
						<Point>
							<coordinates>109.78519599,39.36796930,0</coordinates>
						</Point>
					</Placemark>
				</Folder>
				<Folder>
					<name>第5批2家</name>
					<Placemark>
						<name>广州白云山景区（南门，5A/5）</name>
						<Style>
							<IconStyle>
								<Icon>
									<href>http://maps.google.com/mapfiles/kml/pushpin/ylw-pushpin.png</href>
								</Icon>
								<color>ffffffff</color>
								<scale>1.0</scale>
							</IconStyle>
						</Style>
						<Point>
							<coordinates>113.28887295,23.15811863,0</coordinates>
						</Point>
					</Placemark>
					<Placemark>
						<name>梅州雁南飞茶田景区（正门，5A/5）</name>
						<Style>
							<IconStyle>
								<Icon>
									<href>http://maps.google.com/mapfiles/kml/pushpin/ylw-pushpin.png</href>
								</Icon>
								<color>ffffffff</color>
								<scale>1.0</scale>
							</IconStyle>
						</Style>
						<Point>
							<coordinates>116.36014532,24.38951405,0</coordinates>
						</Point>
					</Placemark>
				</Folder>
				<Folder>
					<name>第6批8家</name>
					<Placemark>
						<name>平顶山尧山—中原大佛景区（正门，5A/6）</name>
						<Style>
							<IconStyle>
								<Icon>
									<href>http://maps.google.com/mapfiles/kml/pushpin/ylw-pushpin.png</href>
								</Icon>
								<color>ffffffff</color>
								<scale>1.0</scale>
							</IconStyle>
						</Style>
						<Point>
							<coordinates>112.45303184,33.76126572,0</coordinates>
						</Point>
					</Placemark>
					<Placemark>
						<name>天柱山风景区（正门，5A/6）</name>
						<Style>
							<IconStyle>
								<Icon>
									<href>http://maps.google.com/mapfiles/kml/pushpin/ylw-pushpin.png</href>
								</Icon>
								<color>ffffffff</color>
								<scale>1.0</scale>
							</IconStyle>
						</Style>
						<Point>
							<coordinates>116.46607788,30.71695262,0</coordinates>
						</Point>
					</Placemark>
					<Placemark>
						<name>皖南古村落—西递·宏村（宏村入口，5A/6）</name>
						<Style>
							<IconStyle>
								<Icon>
									<href>http://maps.google.com/mapfiles/kml/pushpin/ylw-pushpin.png</href>
								</Icon>
								<color>ffffffff</color>
								<scale>1.0</scale>
							</IconStyle>
						</Style>
						<Point>
							<coordinates>117.98655202,30.00328217,0</coordinates>
						</Point>
					</Placemark>
					<Placemark>
						<name>武当山风景区（正门，5A/6）</name>
						<Style>
							<IconStyle>
								<Icon>
									<href>http://maps.google.com/mapfiles/kml/pushpin/ylw-pushpin.png</href>
								</Icon>
								<color>ffffffff</color>
								<scale>1.0</scale>
							</IconStyle>
						</Style>
						<Point>
							<coordinates>111.08862144,32.50611072,0</coordinates>
						</Point>
					</Placemark>
					<Placemark>
						<name>三峡人家风景区（码头，5A/6）</name>
						<Style>
							<IconStyle>
								<Icon>
									<href>http://maps.google.com/mapfiles/kml/pushpin/ylw-pushpin.png</href>
								</Icon>
								<color>ffffffff</color>
								<scale>1.0</scale>
							</IconStyle>
						</Style>
						<Point>
							<coordinates>111.15635708,30.78198466,0</coordinates>
						</Point>
					</Placemark>
					<Placemark>
						<name>神农溪纤夫文化旅游区（终点码头，5A/6）</name>
						<Style>
							<IconStyle>
								<Icon>
									<href>http://maps.google.com/mapfiles/kml/pushpin/ylw-pushpin.png</href>
								</Icon>
								<color>ffffffff</color>
								<scale>1.0</scale>
							</IconStyle>
						</Style>
						<Point>
							<coordinates>110.29327133,31.22706812,0</coordinates>
						</Point>
					</Placemark>
					<Placemark>
						<name>明十三陵景区（神路，5A/6）</name>
						<Style>
							<IconStyle>
								<Icon>
									<href>http://maps.google.com/mapfiles/kml/pushpin/ylw-pushpin.png</href>
								</Icon>
								<color>ffffffff</color>
								<scale>1.0</scale>
							</IconStyle>
						</Style>
						<Point>
							<coordinates>116.21465981,40.24861636,0</coordinates>
						</Point>
					</Placemark>
					<Placemark>
						<name>深圳观澜湖休闲旅游区（景中，5A/6）</name>
						<Style>
							<IconStyle>
								<Icon>
									<href>http://maps.google.com/mapfiles/kml/pushpin/ylw-pushpin.png</href>
								</Icon>
								<color>ffffffff</color>
								<scale>1.0</scale>
							</IconStyle>
						</Style>
						<Point>
							<coordinates>114.07159044,22.74004489,0</coordinates>
						</Point>
					</Placemark>
				</Folder>
				<Folder>
					<name>第7批5家</name>
					<Placemark>
						<name>大理崇圣寺三塔文化旅游区（正门，5A/7）</name>
						<Style>
							<IconStyle>
								<Icon>
									<href>http://maps.google.com/mapfiles/kml/pushpin/ylw-pushpin.png</href>
								</Icon>
								<color>ffffffff</color>
								<scale>1.0</scale>
							</IconStyle>
						</Style>
						<Point>
							<coordinates>100.14944785,25.70962363,0</coordinates>
						</Point>
					</Placemark>
					<Placemark>
						<name>丽江古城景区（入口，5A/7）</name>
						<Style>
							<IconStyle>
								<Icon>
									<href>http://maps.google.com/mapfiles/kml/pushpin/ylw-pushpin.png</href>
								</Icon>
								<color>ffffffff</color>
								<scale>1.0</scale>
							</IconStyle>
						</Style>
						<Point>
							<coordinates>100.23257835,26.87947103,0</coordinates>
						</Point>
					</Placemark>
					<Placemark>
						<name>中国科学院西双版纳热带植物园（正门，5A/7）</name>
						<Style>
							<IconStyle>
								<Icon>
									<href>http://maps.google.com/mapfiles/kml/pushpin/ylw-pushpin.png</href>
								</Icon>
								<color>ffffffff</color>
								<scale>1.0</scale>
							</IconStyle>
						</Style>
						<Point>
							<coordinates>101.24543956,21.93309632,0</coordinates>
						</Point>
					</Placemark>
					<Placemark>
						<name>乐山大佛景区（主入口，5A/7）</name>
						<Style>
							<IconStyle>
								<Icon>
									<href>http://maps.google.com/mapfiles/kml/pushpin/ylw-pushpin.png</href>
								</Icon>
								<color>ffffffff</color>
								<scale>1.0</scale>
							</IconStyle>
						</Style>
						<Point>
							<coordinates>103.77280551,29.54698015,0</coordinates>
						</Point>
					</Placemark>
					<Placemark>
						<name>武隆喀斯特旅游区（天生三硚、仙女山国家级森林公园、芙蓉洞）（三桥入</name>
						<Style>
							<IconStyle>
								<Icon>
									<href>http://maps.google.com/mapfiles/kml/pushpin/ylw-pushpin.png</href>
								</Icon>
								<color>ffffffff</color>
								<scale>1.0</scale>
							</IconStyle>
						</Style>
						<Point>
							<coordinates>107.79119587,29.43717260,0</coordinates>
						</Point>
					</Placemark>
				</Folder>
				<Folder>
					<name>第8批9家</name>
					<Placemark>
						<name>福建土楼（永定·南靖）旅游景区（田螺坑，5A/8）</name>
						<Style>
							<IconStyle>
								<Icon>
									<href>http://maps.google.com/mapfiles/kml/pushpin/ylw-pushpin.png</href>
								</Icon>
								<color>ffffffff</color>
								<scale>1.0</scale>
							</IconStyle>
						</Style>
						<Point>
							<coordinates>117.05591674,24.58689614,0</coordinates>
						</Point>
					</Placemark>
					<Placemark>
						<name>三明泰宁风景旅游区（金湖，5A/8）</name>
						<Style>
							<IconStyle>
								<Icon>
									<href>http://maps.google.com/mapfiles/kml/pushpin/ylw-pushpin.png</href>
								</Icon>
								<color>ffffffff</color>
								<scale>1.0</scale>
							</IconStyle>
						</Style>
						<Point>
							<coordinates>117.09601810,26.86799653,0</coordinates>
						</Point>
					</Placemark>
					<Placemark>
						<name>上饶三清山旅游景区（南入口，5A/8）</name>
						<Style>
							<IconStyle>
								<Icon>
									<href>http://maps.google.com/mapfiles/kml/pushpin/ylw-pushpin.png</href>
								</Icon>
								<color>ffffffff</color>
								<scale>1.0</scale>
							</IconStyle>
						</Style>
						<Point>
							<coordinates>118.06260679,28.87960029,0</coordinates>
						</Point>
					</Placemark>
					<Placemark>
						<name>岳阳楼君山岛景（主景，5A/8）</name>
						<Style>
							<IconStyle>
								<Icon>
									<href>http://maps.google.com/mapfiles/kml/pushpin/ylw-pushpin.png</href>
								</Icon>
								<color>ffffffff</color>
								<scale>1.0</scale>
							</IconStyle>
						</Style>
						<Point>
							<coordinates>113.08840650,29.38185127,0</coordinates>
						</Point>
					</Placemark>
					<Placemark>
						<name>湘潭韶山旅游区（毛故居，5A/8）</name>
						<Style>
							<IconStyle>
								<Icon>
									<href>http://maps.google.com/mapfiles/kml/pushpin/ylw-pushpin.png</href>
								</Icon>
								<color>ffffffff</color>
								<scale>1.0</scale>
							</IconStyle>
						</Style>
						<Point>
							<coordinates>112.48967147,27.91165681,0</coordinates>
						</Point>
					</Placemark>
					<Placemark>
						<name>清远连州地下河旅游景区（正门，5A/8）</name>
						<Style>
							<IconStyle>
								<Icon>
									<href>http://maps.google.com/mapfiles/kml/pushpin/ylw-pushpin.png</href>
								</Icon>
								<color>ffffffff</color>
								<scale>1.0</scale>
							</IconStyle>
						</Style>
						<Point>
							<coordinates>112.31839021,25.00666823,0</coordinates>
						</Point>
					</Placemark>
					<Placemark>
						<name>青海湖景区（二朗剑景区大门，5A/8）</name>
						<Style>
							<IconStyle>
								<Icon>
									<href>http://maps.google.com/mapfiles/kml/pushpin/ylw-pushpin.png</href>
								</Icon>
								<color>ffffffff</color>
								<scale>1.0</scale>
							</IconStyle>
						</Style>
						<Point>
							<coordinates>100.49381203,36.57788611,0</coordinates>
						</Point>
					</Placemark>
					<Placemark>
						<name>嘉兴南湖旅游区（景中，5A/8）</name>
						<Style>
							<IconStyle>
								<Icon>
									<href>http://maps.google.com/mapfiles/kml/pushpin/ylw-pushpin.png</href>
								</Icon>
								<color>ffffffff</color>
								<scale>1.0</scale>
							</IconStyle>
						</Style>
						<Point>
							<coordinates>120.75490859,30.75565590,0</coordinates>
						</Point>
					</Placemark>
					<Placemark>
						<name>石家庄平山县西柏坡景区（正门，5A/8）</name>
						<Style>
							<IconStyle>
								<Icon>
									<href>http://maps.google.com/mapfiles/kml/pushpin/ylw-pushpin.png</href>
								</Icon>
								<color>ffffffff</color>
								<scale>1.0</scale>
							</IconStyle>
						</Style>
						<Point>
							<coordinates>113.93607832,38.34168001,0</coordinates>
						</Point>
					</Placemark>
				</Folder>
			</Folder>
			<Folder>
				<name>第9~16批26家（2012年）</name>
				<Folder>
					<name>第9批6家</name>
					<Placemark>
						<name>神农架风景区（主入口，5A/9）</name>
						<Style>
							<IconStyle>
								<Icon>
									<href>http://maps.google.com/mapfiles/kml/pushpin/ylw-pushpin.png</href>
								</Icon>
								<color>ffffffff</color>
								<scale>1.0</scale>
							</IconStyle>
						</Style>
						<Point>
							<coordinates>110.34509515,31.50760113,0</coordinates>
						</Point>
					</Placemark>
					<Placemark>
						<name>岳麓山-橘子洲风景区（南大门，5A/9）（橘子洲已摘牌）</name>
						<Style>
							<IconStyle>
								<Icon>
									<href>http://maps.google.com/mapfiles/kml/pushpin/ylw-pushpin.png</href>
								</Icon>
								<color>ffffffff</color>
								<scale>1.0</scale>
							</IconStyle>
						</Style>
						<Point>
							<coordinates>112.93512382,28.18209262,0</coordinates>
						</Point>
					</Placemark>
					<Placemark>
						<name>洛阳栾川老君山-鸡冠洞旅游区（正门，5A/9）</name>
						<Style>
							<IconStyle>
								<Icon>
									<href>http://maps.google.com/mapfiles/kml/pushpin/ylw-pushpin.png</href>
								</Icon>
								<color>ffffffff</color>
								<scale>1.0</scale>
							</IconStyle>
						</Style>
						<Point>
							<coordinates>111.64245344,33.75709621,0</coordinates>
						</Point>
					</Placemark>
					<Placemark>
						<name>西溪湿地正门（主入口，5A/9）</name>
						<Style>
							<IconStyle>
								<Icon>
									<href>http://maps.google.com/mapfiles/kml/pushpin/ylw-pushpin.png</href>
								</Icon>
								<color>ffffffff</color>
								<scale>1.0</scale>
							</IconStyle>
						</Style>
						<Point>
							<coordinates>120.05597375,30.25686473,0</coordinates>
						</Point>
					</Placemark>
					<Placemark>
						<name>黄龙景区（正门，5A/9）</name>
						<Style>
							<IconStyle>
								<Icon>
									<href>http://maps.google.com/mapfiles/kml/pushpin/ylw-pushpin.png</href>
								</Icon>
								<color>ffffffff</color>
								<scale>1.0</scale>
							</IconStyle>
						</Style>
						<Point>
							<coordinates>103.81793184,32.75241414,0</coordinates>
						</Point>
					</Placemark>
					<Placemark>
						<name>丹霞山景区（山门，5A/9）</name>
						<Style>
							<IconStyle>
								<Icon>
									<href>http://maps.google.com/mapfiles/kml/pushpin/ylw-pushpin.png</href>
								</Icon>
								<color>ffffffff</color>
								<scale>1.0</scale>
							</IconStyle>
						</Style>
						<Point>
							<coordinates>113.75295116,25.04693668,0</coordinates>
						</Point>
					</Placemark>
				</Folder>
				<Folder>
					<name>第10批5家</name>
					<Placemark>
						<name>酉阳桃花源景区（正门。5A/10）</name>
						<Style>
							<IconStyle>
								<Icon>
									<href>http://maps.google.com/mapfiles/kml/pushpin/ylw-pushpin.png</href>
								</Icon>
								<color>ffffffff</color>
								<scale>1.0</scale>
							</IconStyle>
						</Style>
						<Point>
							<coordinates>108.76151777,28.86039323,0</coordinates>
						</Point>
					</Placemark>
					<Placemark>
						<name>三亚呀诺达雨林文化旅游区（入口，5A/10）</name>
						<Style>
							<IconStyle>
								<Icon>
									<href>http://maps.google.com/mapfiles/kml/pushpin/ylw-pushpin.png</href>
								</Icon>
								<color>ffffffff</color>
								<scale>1.0</scale>
							</IconStyle>
						</Style>
						<Point>
							<coordinates>109.66542169,18.45252024,0</coordinates>
						</Point>
					</Placemark>
					<Placemark>
						<name>恭王府景区（正门，5A/10）</name>
						<Style>
							<IconStyle>
								<Icon>
									<href>http://maps.google.com/mapfiles/kml/pushpin/ylw-pushpin.png</href>
								</Icon>
								<color>ffffffff</color>
								<scale>1.0</scale>
							</IconStyle>
						</Style>
						<Point>
							<coordinates>116.38029412,39.93437142,0</coordinates>
						</Point>
					</Placemark>
					<Placemark>
						<name>南通濠河景区（景中，5A/10）</name>
						<Style>
							<IconStyle>
								<Icon>
									<href>http://maps.google.com/mapfiles/kml/pushpin/ylw-pushpin.png</href>
								</Icon>
								<color>ffffffff</color>
								<scale>1.0</scale>
							</IconStyle>
						</Style>
						<Point>
							<coordinates>120.85378710,32.02387272,0</coordinates>
						</Point>
					</Placemark>
					<Placemark>
						<name>富蕴县可可托海景区（峡谷，5A/10）</name>
						<Style>
							<IconStyle>
								<Icon>
									<href>http://maps.google.com/mapfiles/kml/pushpin/ylw-pushpin.png</href>
								</Icon>
								<color>ffffffff</color>
								<scale>1.0</scale>
							</IconStyle>
						</Style>
						<Point>
							<coordinates>89.86964086,47.21202968,0</coordinates>
						</Point>
					</Placemark>
				</Folder>
				<Folder>
					<name>第11批2家</name>
					<Placemark>
						<name>鹰潭龙虎山旅游景区（正门，5A/11）</name>
						<Style>
							<IconStyle>
								<Icon>
									<href>http://maps.google.com/mapfiles/kml/pushpin/ylw-pushpin.png</href>
								</Icon>
								<color>ffffffff</color>
								<scale>1.0</scale>
							</IconStyle>
						</Style>
						<Point>
							<coordinates>116.97646411,28.11920942,0</coordinates>
						</Point>
					</Placemark>
					<Placemark>
						<name>泰州姜堰区溱湖旅游景区（正门，5A/11）</name>
						<Style>
							<IconStyle>
								<Icon>
									<href>http://maps.google.com/mapfiles/kml/pushpin/ylw-pushpin.png</href>
								</Icon>
								<color>ffffffff</color>
								<scale>1.0</scale>
							</IconStyle>
						</Style>
						<Point>
							<coordinates>120.07849853,32.61489533,0</coordinates>
						</Point>
					</Placemark>
				</Folder>
				<Folder>
					<name>第12批1家</name>
					<Placemark>
						<name>苏州金鸡湖景区（景中，5A/12）</name>
						<Style>
							<IconStyle>
								<Icon>
									<href>http://maps.google.com/mapfiles/kml/pushpin/ylw-pushpin.png</href>
								</Icon>
								<color>ffffffff</color>
								<scale>1.0</scale>
							</IconStyle>
						</Style>
						<Point>
							<coordinates>120.68132121,31.31733001,0</coordinates>
						</Point>
					</Placemark>
				</Folder>
				<Folder>
					<name>第13家1家</name>
					<Placemark>
						<name>屏南白水洋-鸳鸯溪旅游景区（白水洋入口，5A/13）</name>
						<Style>
							<IconStyle>
								<Icon>
									<href>http://maps.google.com/mapfiles/kml/pushpin/ylw-pushpin.png</href>
								</Icon>
								<color>ffffffff</color>
								<scale>1.0</scale>
							</IconStyle>
						</Style>
						<Point>
							<coordinates>119.04751562,27.06748751,0</coordinates>
						</Point>
					</Placemark>
				</Folder>
				<Folder>
					<name>第14批2家</name>
					<Placemark>
						<name>镇江三山景区（金山·焦山·北固山）（金山寺，5A/14）</name>
						<Style>
							<IconStyle>
								<Icon>
									<href>http://maps.google.com/mapfiles/kml/pushpin/ylw-pushpin.png</href>
								</Icon>
								<color>ffffffff</color>
								<scale>1.0</scale>
							</IconStyle>
						</Style>
						<Point>
							<coordinates>119.40986125,32.21726060,0</coordinates>
						</Point>
					</Placemark>
					<Placemark>
						<name>六安天堂寨（正门，5A/14）</name>
						<Style>
							<IconStyle>
								<Icon>
									<href>http://maps.google.com/mapfiles/kml/pushpin/ylw-pushpin.png</href>
								</Icon>
								<color>ffffffff</color>
								<scale>1.0</scale>
							</IconStyle>
						</Style>
						<Point>
							<coordinates>115.76957482,31.17036694,0</coordinates>
						</Point>
					</Placemark>
				</Folder>
				<Folder>
					<name>第15批5家</name>
					<Placemark>
						<name>万盛经开区黑山谷-龙鳞石海景区（游客中心，5A/15）</name>
						<Style>
							<IconStyle>
								<Icon>
									<href>http://maps.google.com/mapfiles/kml/pushpin/ylw-pushpin.png</href>
								</Icon>
								<color>ffffffff</color>
								<scale>1.0</scale>
							</IconStyle>
						</Style>
						<Point>
							<coordinates>106.99519477,28.92227267,0</coordinates>
						</Point>
					</Placemark>
					<Placemark>
						<name>绩溪龙川景区（正门，5A/15）</name>
						<Style>
							<IconStyle>
								<Icon>
									<href>http://maps.google.com/mapfiles/kml/pushpin/ylw-pushpin.png</href>
								</Icon>
								<color>ffffffff</color>
								<scale>1.0</scale>
							</IconStyle>
						</Style>
						<Point>
							<coordinates>118.66274130,30.07820965,0</coordinates>
						</Point>
					</Placemark>
					<Placemark>
						<name>鲁迅故里.沈园景区（沈园正门，5A/15）</name>
						<Style>
							<IconStyle>
								<Icon>
									<href>http://maps.google.com/mapfiles/kml/pushpin/ylw-pushpin.png</href>
								</Icon>
								<color>ffffffff</color>
								<scale>1.0</scale>
							</IconStyle>
						</Style>
						<Point>
							<coordinates>120.58575894,29.99412407,0</coordinates>
						</Point>
					</Placemark>
					<Placemark>
						<name>泉州清源山景区（正门，5A/15）</name>
						<Style>
							<IconStyle>
								<Icon>
									<href>http://maps.google.com/mapfiles/kml/pushpin/ylw-pushpin.png</href>
								</Icon>
								<color>ffffffff</color>
								<scale>1.0</scale>
							</IconStyle>
						</Style>
						<Point>
							<coordinates>118.59267372,24.94469858,0</coordinates>
						</Point>
					</Placemark>
					<Placemark>
						<name>无锡鼋头渚景区（南门入口，5A/15）</name>
						<Style>
							<IconStyle>
								<Icon>
									<href>http://maps.google.com/mapfiles/kml/pushpin/ylw-pushpin.png</href>
								</Icon>
								<color>ffffffff</color>
								<scale>1.0</scale>
							</IconStyle>
						</Style>
						<Point>
							<coordinates>120.23078397,31.52117176,0</coordinates>
						</Point>
					</Placemark>
				</Folder>
				<Folder>
					<name>第16批4家</name>
					<Placemark>
						<name>北京奥林匹克公园（景中，5A/16）</name>
						<Style>
							<IconStyle>
								<Icon>
									<href>http://maps.google.com/mapfiles/kml/pushpin/ylw-pushpin.png</href>
								</Icon>
								<color>ffffffff</color>
								<scale>1.0</scale>
							</IconStyle>
						</Style>
						<Point>
							<coordinates>116.38521150,40.00083605,0</coordinates>
						</Point>
					</Placemark>
					<Placemark>
						<name>青海湟中县塔尔寺（正门，5A/16）</name>
						<Style>
							<IconStyle>
								<Icon>
									<href>http://maps.google.com/mapfiles/kml/pushpin/ylw-pushpin.png</href>
								</Icon>
								<color>ffffffff</color>
								<scale>1.0</scale>
							</IconStyle>
						</Style>
						<Point>
							<coordinates>101.56753111,36.49026894,0</coordinates>
						</Point>
					</Placemark>
					<Placemark>
						<name>广西桂林独秀峰-靖江王城景区（正门，5A/16）</name>
						<Style>
							<IconStyle>
								<Icon>
									<href>http://maps.google.com/mapfiles/kml/pushpin/ylw-pushpin.png</href>
								</Icon>
								<color>ffffffff</color>
								<scale>1.0</scale>
							</IconStyle>
						</Style>
						<Point>
							<coordinates>110.29439216,25.28324580,0</coordinates>
						</Point>
					</Placemark>
					<Placemark>
						<name>迪庆州香格里拉普达措国家公园（正门，5A/16）</name>
						<Style>
							<IconStyle>
								<Icon>
									<href>http://maps.google.com/mapfiles/kml/pushpin/ylw-pushpin.png</href>
								</Icon>
								<color>ffffffff</color>
								<scale>1.0</scale>
							</IconStyle>
						</Style>
						<Point>
							<coordinates>99.90637640,27.80476233,0</coordinates>
						</Point>
					</Placemark>
				</Folder>
			</Folder>
			<Folder>
				<name>第17~23批30家（2013年）</name>
				<Folder>
					<name>第17批8家</name>
					<Placemark>
						<name>吴中太湖旅游区（景中，5A/17）</name>
						<Style>
							<IconStyle>
								<Icon>
									<href>http://maps.google.com/mapfiles/kml/pushpin/ylw-pushpin.png</href>
								</Icon>
								<color>ffffffff</color>
								<scale>1.0</scale>
							</IconStyle>
						</Style>
						<Point>
							<coordinates>120.25558854,31.11367270,0</coordinates>
						</Point>
					</Placemark>
					<Placemark>
						<name>婺源江湾景区（正门，5A/17）</name>
						<Style>
							<IconStyle>
								<Icon>
									<href>http://maps.google.com/mapfiles/kml/pushpin/ylw-pushpin.png</href>
								</Icon>
								<color>ffffffff</color>
								<scale>1.0</scale>
							</IconStyle>
						</Style>
						<Point>
							<coordinates>118.04639941,29.37030584,0</coordinates>
						</Point>
					</Placemark>
					<Placemark>
						<name>台儿庄古城景区（正门，5A/17）</name>
						<Style>
							<IconStyle>
								<Icon>
									<href>http://maps.google.com/mapfiles/kml/pushpin/ylw-pushpin.png</href>
								</Icon>
								<color>ffffffff</color>
								<scale>1.0</scale>
							</IconStyle>
						</Style>
						<Point>
							<coordinates>117.73412469,34.56082368,0</coordinates>
						</Point>
					</Placemark>
					<Placemark>
						<name>洛阳龙潭大峡谷景区（正门，5A/17）</name>
						<Style>
							<IconStyle>
								<Icon>
									<href>http://maps.google.com/mapfiles/kml/pushpin/ylw-pushpin.png</href>
								</Icon>
								<color>ffffffff</color>
								<scale>1.0</scale>
							</IconStyle>
						</Style>
						<Point>
							<coordinates>112.01026895,34.97558503,0</coordinates>
						</Point>
					</Placemark>
					<Placemark>
						<name>长阳清江画廊景区（正门,5A/17）</name>
						<Style>
							<IconStyle>
								<Icon>
									<href>http://maps.google.com/mapfiles/kml/pushpin/ylw-pushpin.png</href>
								</Icon>
								<color>ffffffff</color>
								<scale>1.0</scale>
							</IconStyle>
						</Style>
						<Point>
							<coordinates>111.13416217,30.46712235,0</coordinates>
						</Point>
					</Placemark>
					<Placemark>
						<name>佛山西樵山景区（正门，5A/17）</name>
						<Style>
							<IconStyle>
								<Icon>
									<href>http://maps.google.com/mapfiles/kml/pushpin/ylw-pushpin.png</href>
								</Icon>
								<color>ffffffff</color>
								<scale>1.0</scale>
							</IconStyle>
						</Style>
						<Point>
							<coordinates>112.98154877,22.93882133,0</coordinates>
						</Point>
					</Placemark>
					<Placemark>
						<name>海南分界洲岛旅游区（码头，5A/17）</name>
						<Style>
							<IconStyle>
								<Icon>
									<href>http://maps.google.com/mapfiles/kml/pushpin/ylw-pushpin.png</href>
								</Icon>
								<color>ffffffff</color>
								<scale>1.0</scale>
							</IconStyle>
						</Style>
						<Point>
							<coordinates>110.19529018,18.58102106,0</coordinates>
						</Point>
					</Placemark>
					<Placemark>
						<name>布达拉宫景区（5A/17）</name>
						<Style>
							<IconStyle>
								<Icon>
									<href>http://maps.google.com/mapfiles/kml/pushpin/ylw-pushpin.png</href>
								</Icon>
								<color>ffffffff</color>
								<scale>1.0</scale>
							</IconStyle>
						</Style>
						<Point>
							<coordinates>91.11690560,29.65774693,0</coordinates>
						</Point>
					</Placemark>
				</Folder>
				<Folder>
					<name>第18批2家</name>
					<Placemark>
						<name>常熟沙家浜-虞山尚湖旅游区（沙家浜正门，5A/18）</name>
						<Style>
							<IconStyle>
								<Icon>
									<href>http://maps.google.com/mapfiles/kml/pushpin/ylw-pushpin.png</href>
								</Icon>
								<color>ffffffff</color>
								<scale>1.0</scale>
							</IconStyle>
						</Style>
						<Point>
							<coordinates>120.79363272,31.55166528,0</coordinates>
						</Point>
					</Placemark>
					<Placemark>
						<name>景德镇古窑民俗博览区（正门，5A/18）</name>
						<Style>
							<IconStyle>
								<Icon>
									<href>http://maps.google.com/mapfiles/kml/pushpin/ylw-pushpin.png</href>
								</Icon>
								<color>ffffffff</color>
								<scale>1.0</scale>
							</IconStyle>
						</Style>
						<Point>
							<coordinates>117.17979719,29.28370647,0</coordinates>
						</Point>
					</Placemark>
				</Folder>
				<Folder>
					<name>第19批2家</name>
					<Placemark>
						<name>汶川特别旅游区（映秀，5A/19）</name>
						<Style>
							<IconStyle>
								<Icon>
									<href>http://maps.google.com/mapfiles/kml/pushpin/ylw-pushpin.png</href>
								</Icon>
								<color>ffffffff</color>
								<scale>1.0</scale>
							</IconStyle>
						</Style>
						<Point>
							<coordinates>103.48631840,31.05716301,0</coordinates>
						</Point>
					</Placemark>
					<Placemark>
						<name>绵阳羌城旅游区（北川老城，5A/19）</name>
						<Style>
							<IconStyle>
								<Icon>
									<href>http://maps.google.com/mapfiles/kml/pushpin/ylw-pushpin.png</href>
								</Icon>
								<color>ffffffff</color>
								<scale>1.0</scale>
							</IconStyle>
						</Style>
						<Point>
							<coordinates>104.44842164,31.81270026,0</coordinates>
						</Point>
					</Placemark>
				</Folder>
				<Folder>
					<name>第20批5家</name>
					<Placemark>
						<name>开化根宫佛国文化旅游区（正门，5A/20）</name>
						<Style>
							<IconStyle>
								<Icon>
									<href>http://maps.google.com/mapfiles/kml/pushpin/ylw-pushpin.png</href>
								</Icon>
								<color>ffffffff</color>
								<scale>1.0</scale>
							</IconStyle>
						</Style>
						<Point>
							<coordinates>118.38949162,29.13542374,0</coordinates>
						</Point>
					</Placemark>
					<Placemark>
						<name>山西绵山风景名胜区（正门，5A/20）</name>
						<Style>
							<IconStyle>
								<Icon>
									<href>http://maps.google.com/mapfiles/kml/pushpin/ylw-pushpin.png</href>
								</Icon>
								<color>ffffffff</color>
								<scale>1.0</scale>
							</IconStyle>
						</Style>
						<Point>
							<coordinates>111.95483570,36.90506980,0</coordinates>
						</Point>
					</Placemark>
					<Placemark>
						<name>伊春汤旺河林海奇石景区（正门，5A/20）</name>
						<Style>
							<IconStyle>
								<Icon>
									<href>http://maps.google.com/mapfiles/kml/pushpin/ylw-pushpin.png</href>
								</Icon>
								<color>ffffffff</color>
								<scale>1.0</scale>
							</IconStyle>
						</Style>
						<Point>
							<coordinates>129.45097943,48.45943341,0</coordinates>
						</Point>
					</Placemark>
					<Placemark>
						<name>天下第一泉风景区（趵突泉-大明湖-五龙潭-黑虎泉-环城公园）(5A/20)</name>
						<Style>
							<IconStyle>
								<Icon>
									<href>http://maps.google.com/mapfiles/kml/pushpin/ylw-pushpin.png</href>
								</Icon>
								<color>ffffffff</color>
								<scale>1.0</scale>
							</IconStyle>
						</Style>
						<Point>
							<coordinates>117.01001048,36.66104014,0</coordinates>
						</Point>
					</Placemark>
					<Placemark>
						<name>南川区金佛山景区（西门，5A/20）</name>
						<Style>
							<IconStyle>
								<Icon>
									<href>http://maps.google.com/mapfiles/kml/pushpin/ylw-pushpin.png</href>
								</Icon>
								<color>ffffffff</color>
								<scale>1.0</scale>
							</IconStyle>
						</Style>
						<Point>
							<coordinates>107.12238319,29.05154215,0</coordinates>
						</Point>
					</Placemark>
				</Folder>
				<Folder>
					<name>第21批9家</name>
					<Placemark>
						<name>常州溧阳天目湖旅游度假区(天目湖、南山竹海、御水温泉)（码头，5A/21）</name>
						<Style>
							<IconStyle>
								<Icon>
									<href>http://maps.google.com/mapfiles/kml/pushpin/ylw-pushpin.png</href>
								</Icon>
								<color>ffffffff</color>
								<scale>1.0</scale>
							</IconStyle>
						</Style>
						<Point>
							<coordinates>119.43340900,31.31648291,0</coordinates>
						</Point>
					</Placemark>
					<Placemark>
						<name>颍上八里河景区（正门，5A/21）</name>
						<Style>
							<IconStyle>
								<Icon>
									<href>http://maps.google.com/mapfiles/kml/pushpin/ylw-pushpin.png</href>
								</Icon>
								<color>ffffffff</color>
								<scale>1.0</scale>
							</IconStyle>
						</Style>
						<Point>
							<coordinates>116.29155819,32.57021469,0</coordinates>
						</Point>
					</Placemark>
					<Placemark>
						<name>广安邓小平故里景区（正门，5A/21）</name>
						<Style>
							<IconStyle>
								<Icon>
									<href>http://maps.google.com/mapfiles/kml/pushpin/ylw-pushpin.png</href>
								</Icon>
								<color>ffffffff</color>
								<scale>1.0</scale>
							</IconStyle>
						</Style>
						<Point>
							<coordinates>106.63307728,30.51477026,0</coordinates>
						</Point>
					</Placemark>
					<Placemark>
						<name>阆中古城旅游区（正门，5A/21）</name>
						<Style>
							<IconStyle>
								<Icon>
									<href>http://maps.google.com/mapfiles/kml/pushpin/ylw-pushpin.png</href>
								</Icon>
								<color>ffffffff</color>
								<scale>1.0</scale>
							</IconStyle>
						</Style>
						<Point>
							<coordinates>105.97485999,31.57309095,0</coordinates>
						</Point>
					</Placemark>
					<Placemark>
						<name>福鼎太姥山旅游区（正门，5A/21）</name>
						<Style>
							<IconStyle>
								<Icon>
									<href>http://maps.google.com/mapfiles/kml/pushpin/ylw-pushpin.png</href>
								</Icon>
								<color>ffffffff</color>
								<scale>1.0</scale>
							</IconStyle>
						</Style>
						<Point>
							<coordinates>120.18835924,27.10561883,0</coordinates>
						</Point>
					</Placemark>
					<Placemark>
						<name>武汉东湖风景区（5A/21）</name>
						<Style>
							<IconStyle>
								<Icon>
									<href>http://maps.google.com/mapfiles/kml/pushpin/ylw-pushpin.png</href>
								</Icon>
								<color>ffffffff</color>
								<scale>1.0</scale>
							</IconStyle>
						</Style>
						<Point>
							<coordinates>114.37695481,30.55408846,0</coordinates>
						</Point>
					</Placemark>
					<Placemark>
						<name>毕节百里杜鹃景区（入口，5A/21）</name>
						<Style>
							<IconStyle>
								<Icon>
									<href>http://maps.google.com/mapfiles/kml/pushpin/ylw-pushpin.png</href>
								</Icon>
								<color>ffffffff</color>
								<scale>1.0</scale>
							</IconStyle>
						</Style>
						<Point>
							<coordinates>105.93140458,27.17898844,0</coordinates>
						</Point>
					</Placemark>
					<Placemark>
						<name>大昭寺（正门，5A/21）</name>
						<Style>
							<IconStyle>
								<Icon>
									<href>http://maps.google.com/mapfiles/kml/pushpin/ylw-pushpin.png</href>
								</Icon>
								<color>ffffffff</color>
								<scale>1.0</scale>
							</IconStyle>
						</Style>
						<Point>
							<coordinates>91.13076360,29.65296593,0</coordinates>
						</Point>
					</Placemark>
					<Placemark>
						<name>泽普金湖杨国家森林公园景区（正门，5A/21）</name>
						<Style>
							<IconStyle>
								<Icon>
									<href>http://maps.google.com/mapfiles/kml/pushpin/ylw-pushpin.png</href>
								</Icon>
								<color>ffffffff</color>
								<scale>1.0</scale>
							</IconStyle>
						</Style>
						<Point>
							<coordinates>76.97880204,38.03008140,0</coordinates>
						</Point>
					</Placemark>
				</Folder>
				<Folder>
					<name>第22批1家</name>
					<Placemark>
						<name>花明楼景区（正门，5A/22）</name>
						<Style>
							<IconStyle>
								<Icon>
									<href>http://maps.google.com/mapfiles/kml/pushpin/ylw-pushpin.png</href>
								</Icon>
								<color>ffffffff</color>
								<scale>1.0</scale>
							</IconStyle>
						</Style>
						<Point>
							<coordinates>112.63946290,28.03496300,0</coordinates>
						</Point>
					</Placemark>
				</Folder>
				<Folder>
					<name>第23批3家</name>
					<Placemark>
						<name>罗浮山景区（正门，5A/23）</name>
						<Style>
							<IconStyle>
								<Icon>
									<href>http://maps.google.com/mapfiles/kml/pushpin/ylw-pushpin.png</href>
								</Icon>
								<color>ffffffff</color>
								<scale>1.0</scale>
							</IconStyle>
						</Style>
						<Point>
							<coordinates>114.06020038,23.26215753,0</coordinates>
						</Point>
					</Placemark>
					<Placemark>
						<name>沂蒙山景区（云蒙景区大门，5A/23）</name>
						<Style>
							<IconStyle>
								<Icon>
									<href>http://maps.google.com/mapfiles/kml/pushpin/ylw-pushpin.png</href>
								</Icon>
								<color>ffffffff</color>
								<scale>1.0</scale>
							</IconStyle>
						</Style>
						<Point>
							<coordinates>117.96961269,35.55967499,0</coordinates>
						</Point>
					</Placemark>
					<Placemark>
						<name>天山大峡谷景区（景中，5A/23）</name>
						<Style>
							<IconStyle>
								<Icon>
									<href>http://maps.google.com/mapfiles/kml/pushpin/ylw-pushpin.png</href>
								</Icon>
								<color>ffffffff</color>
								<scale>1.0</scale>
							</IconStyle>
						</Style>
						<Point>
							<coordinates>87.39184154,43.39030621,0</coordinates>
						</Point>
					</Placemark>
				</Folder>
			</Folder>
			<Folder>
				<name>第24~27批10家（2014年）</name>
				<Folder>
					<name>第24批1家</name>
					<Placemark>
						<name>博斯腾湖景区（大河口，5A/24）</name>
						<Style>
							<IconStyle>
								<Icon>
									<href>http://maps.google.com/mapfiles/kml/pushpin/ylw-pushpin.png</href>
								</Icon>
								<color>ffffffff</color>
								<scale>1.0</scale>
							</IconStyle>
						</Style>
						<Point>
							<coordinates>86.72822133,41.90738816,0</coordinates>
						</Point>
					</Placemark>
				</Folder>
				<Folder>
					<name>第25批1家</name>
					<Placemark>
						<name>法门寺佛文化景区（正门，5A/25）</name>
						<Style>
							<IconStyle>
								<Icon>
									<href>http://maps.google.com/mapfiles/kml/pushpin/ylw-pushpin.png</href>
								</Icon>
								<color>ffffffff</color>
								<scale>1.0</scale>
							</IconStyle>
						</Style>
						<Point>
							<coordinates>107.89912841,34.42574114,0</coordinates>
						</Point>
					</Placemark>
				</Folder>
				<Folder>
					<name>第26批1家</name>
					<Placemark>
						<name>屈原故里文化旅游区（正门，5A/26）</name>
						<Style>
							<IconStyle>
								<Icon>
									<href>http://maps.google.com/mapfiles/kml/pushpin/ylw-pushpin.png</href>
								</Icon>
								<color>ffffffff</color>
								<scale>1.0</scale>
							</IconStyle>
						</Style>
						<Point>
							<coordinates>110.98073113,30.82673933,0</coordinates>
						</Point>
					</Placemark>
				</Folder>
				<Folder>
					<name>第27批7家</name>
					<Placemark>
						<name>乔家大院（正门，5A/27）</name>
						<Style>
							<IconStyle>
								<Icon>
									<href>http://maps.google.com/mapfiles/kml/pushpin/ylw-pushpin.png</href>
								</Icon>
								<color>ffffffff</color>
								<scale>1.0</scale>
							</IconStyle>
						</Style>
						<Point>
							<coordinates>112.43420451,37.40611458,0</coordinates>
						</Point>
					</Placemark>
					<Placemark>
						<name>镇江句容茅山景区（西门，5A/27）</name>
						<Style>
							<IconStyle>
								<Icon>
									<href>http://maps.google.com/mapfiles/kml/pushpin/ylw-pushpin.png</href>
								</Icon>
								<color>ffffffff</color>
								<scale>1.0</scale>
							</IconStyle>
						</Style>
						<Point>
							<coordinates>119.29992983,31.78739516,0</coordinates>
						</Point>
					</Placemark>
					<Placemark>
						<name>黄山古徽州文化旅游区（古城入口，5A/27）</name>
						<Style>
							<IconStyle>
								<Icon>
									<href>http://maps.google.com/mapfiles/kml/pushpin/ylw-pushpin.png</href>
								</Icon>
								<color>ffffffff</color>
								<scale>1.0</scale>
							</IconStyle>
						</Style>
						<Point>
							<coordinates>118.42940008,29.86715124,0</coordinates>
						</Point>
					</Placemark>
					<Placemark>
						<name>南阳中国西峡恐龙遗迹园-伏牛山-老界岭旅游区（老界岭正门，5A/27）</name>
						<Style>
							<IconStyle>
								<Icon>
									<href>http://maps.google.com/mapfiles/kml/pushpin/ylw-pushpin.png</href>
								</Icon>
								<color>ffffffff</color>
								<scale>1.0</scale>
							</IconStyle>
						</Style>
						<Point>
							<coordinates>111.76321817,33.62669702,0</coordinates>
						</Point>
					</Placemark>
					<Placemark>
						<name>武汉黄陂木兰文化生态旅游区（木兰山正门，5A/27）</name>
						<Style>
							<IconStyle>
								<Icon>
									<href>http://maps.google.com/mapfiles/kml/pushpin/ylw-pushpin.png</href>
								</Icon>
								<color>ffffffff</color>
								<scale>1.0</scale>
							</IconStyle>
						</Style>
						<Point>
							<coordinates>114.37645112,31.11116512,0</coordinates>
						</Point>
					</Placemark>
					<Placemark>
						<name>佛山长鹿旅游休博园（正门，5A/27）</name>
						<Style>
							<IconStyle>
								<Icon>
									<href>http://maps.google.com/mapfiles/kml/pushpin/ylw-pushpin.png</href>
								</Icon>
								<color>ffffffff</color>
								<scale>1.0</scale>
							</IconStyle>
						</Style>
						<Point>
							<coordinates>113.28212366,22.87958641,0</coordinates>
						</Point>
					</Placemark>
					<Placemark>
						<name>南宁青秀山旅游区（正门，5A/27）</name>
						<Style>
							<IconStyle>
								<Icon>
									<href>http://maps.google.com/mapfiles/kml/pushpin/ylw-pushpin.png</href>
								</Icon>
								<color>ffffffff</color>
								<scale>1.0</scale>
							</IconStyle>
						</Style>
						<Point>
							<coordinates>108.38747980,22.79630715,0</coordinates>
						</Point>
					</Placemark>
				</Folder>
			</Folder>
			<Folder>
				<name>第28~29批29家（2015年）</name>
				<Folder>
					<name>第28批15家</name>
					<Placemark>
						<name>平遥古城（主入口，5A/28）</name>
						<Style>
							<IconStyle>
								<Icon>
									<href>http://maps.google.com/mapfiles/kml/pushpin/ylw-pushpin.png</href>
								</Icon>
								<color>ffffffff</color>
								<scale>1.0</scale>
							</IconStyle>
						</Style>
						<Point>
							<coordinates>112.17507513,37.21056126,0</coordinates>
						</Point>
					</Placemark>
					<Placemark>
						<name>本溪水洞景区（正门，5A/28）</name>
						<Style>
							<IconStyle>
								<Icon>
									<href>http://maps.google.com/mapfiles/kml/pushpin/ylw-pushpin.png</href>
								</Icon>
								<color>ffffffff</color>
								<scale>1.0</scale>
							</IconStyle>
						</Style>
						<Point>
							<coordinates>124.07819529,41.29934235,0</coordinates>
						</Point>
					</Placemark>
					<Placemark>
						<name>长影世纪城旅游区（正门，5A/28）</name>
						<Style>
							<IconStyle>
								<Icon>
									<href>http://maps.google.com/mapfiles/kml/pushpin/ylw-pushpin.png</href>
								</Icon>
								<color>ffffffff</color>
								<scale>1.0</scale>
							</IconStyle>
						</Style>
						<Point>
							<coordinates>125.44102418,43.76873773,0</coordinates>
						</Point>
					</Placemark>
					<Placemark>
						<name>北极村旅游风景区（正门，5A/28）</name>
						<Style>
							<IconStyle>
								<Icon>
									<href>http://maps.google.com/mapfiles/kml/pushpin/ylw-pushpin.png</href>
								</Icon>
								<color>ffffffff</color>
								<scale>1.0</scale>
							</IconStyle>
						</Style>
						<Point>
							<coordinates>122.34777018,53.45930553,0</coordinates>
						</Point>
					</Placemark>
					<Placemark>
						<name>南浔古镇景区（主入口，5A/28）</name>
						<Style>
							<IconStyle>
								<Icon>
									<href>http://maps.google.com/mapfiles/kml/pushpin/ylw-pushpin.png</href>
								</Icon>
								<color>ffffffff</color>
								<scale>1.0</scale>
							</IconStyle>
						</Style>
						<Point>
							<coordinates>120.42533196,30.87316415,0</coordinates>
						</Point>
					</Placemark>
					<Placemark>
						<name>福州三坊七巷景区（入口，5A/28）</name>
						<Style>
							<IconStyle>
								<Icon>
									<href>http://maps.google.com/mapfiles/kml/pushpin/ylw-pushpin.png</href>
								</Icon>
								<color>ffffffff</color>
								<scale>1.0</scale>
							</IconStyle>
						</Style>
						<Point>
							<coordinates>119.29152053,26.08834963,0</coordinates>
						</Point>
					</Placemark>
					<Placemark>
						<name>恩施大峡谷景区（正门，5A/28）</name>
						<Style>
							<IconStyle>
								<Icon>
									<href>http://maps.google.com/mapfiles/kml/pushpin/ylw-pushpin.png</href>
								</Icon>
								<color>ffffffff</color>
								<scale>1.0</scale>
							</IconStyle>
						</Style>
						<Point>
							<coordinates>109.19024781,30.40653683,0</coordinates>
						</Point>
					</Placemark>
					<Placemark>
						<name>东江湖风景旅游区（入口，5A/28）</name>
						<Style>
							<IconStyle>
								<Icon>
									<href>http://maps.google.com/mapfiles/kml/pushpin/ylw-pushpin.png</href>
								</Icon>
								<color>ffffffff</color>
								<scale>1.0</scale>
							</IconStyle>
						</Style>
						<Point>
							<coordinates>113.25899035,25.93745703,0</coordinates>
						</Point>
					</Placemark>
					<Placemark>
						<name>鸣沙山月牙泉风景名胜区（正门，5A/28）</name>
						<Style>
							<IconStyle>
								<Icon>
									<href>http://maps.google.com/mapfiles/kml/pushpin/ylw-pushpin.png</href>
								</Icon>
								<color>ffffffff</color>
								<scale>1.0</scale>
							</IconStyle>
						</Style>
						<Point>
							<coordinates>94.67583000,40.09294106,0</coordinates>
						</Point>
					</Placemark>
					<Placemark>
						<name>剑门关风景区（正门，5A/28）</name>
						<Style>
							<IconStyle>
								<Icon>
									<href>http://maps.google.com/mapfiles/kml/pushpin/ylw-pushpin.png</href>
								</Icon>
								<color>ffffffff</color>
								<scale>1.0</scale>
							</IconStyle>
						</Style>
						<Point>
							<coordinates>105.56357566,32.20841234,0</coordinates>
						</Point>
					</Placemark>
					<Placemark>
						<name>荔波樟江风景名胜区（小七孔景区入口，5A/28）</name>
						<Style>
							<IconStyle>
								<Icon>
									<href>http://maps.google.com/mapfiles/kml/pushpin/ylw-pushpin.png</href>
								</Icon>
								<color>ffffffff</color>
								<scale>1.0</scale>
							</IconStyle>
						</Style>
						<Point>
							<coordinates>107.74321886,25.25196068,0</coordinates>
						</Point>
					</Placemark>
					<Placemark>
						<name>银川水洞沟文化遗址（正门，5A/28）</name>
						<Style>
							<IconStyle>
								<Icon>
									<href>http://maps.google.com/mapfiles/kml/pushpin/ylw-pushpin.png</href>
								</Icon>
								<color>ffffffff</color>
								<scale>1.0</scale>
							</IconStyle>
						</Style>
						<Point>
							<coordinates>106.50476401,38.29076056,0</coordinates>
						</Point>
					</Placemark>
					<Placemark>
						<name>瑞金共和国摇篮景区（叶坪景区正门，5A/28）</name>
						<Style>
							<IconStyle>
								<Icon>
									<href>http://maps.google.com/mapfiles/kml/pushpin/ylw-pushpin.png</href>
								</Icon>
								<color>ffffffff</color>
								<scale>1.0</scale>
							</IconStyle>
						</Style>
						<Point>
							<coordinates>116.06807276,25.90685431,0</coordinates>
						</Point>
					</Placemark>
					<Placemark>
						<name>喀什噶尔古城景区（景中，5A/28）</name>
						<Style>
							<IconStyle>
								<Icon>
									<href>http://maps.google.com/mapfiles/kml/pushpin/ylw-pushpin.png</href>
								</Icon>
								<color>ffffffff</color>
								<scale>1.0</scale>
							</IconStyle>
						</Style>
						<Point>
							<coordinates>75.99140957,39.47202873,0</coordinates>
						</Point>
					</Placemark>
					<Placemark>
						<name>海南槟榔谷黎苗文化旅游区（入口，5A/28）</name>
						<Style>
							<IconStyle>
								<Icon>
									<href>http://maps.google.com/mapfiles/kml/pushpin/ylw-pushpin.png</href>
								</Icon>
								<color>ffffffff</color>
								<scale>1.0</scale>
							</IconStyle>
						</Style>
						<Point>
							<coordinates>109.65685249,18.39949012,0</coordinates>
						</Point>
					</Placemark>
				</Folder>
				<Folder>
					<name>第29批14家</name>
					<Placemark>
						<name>唐山清东陵景区（正入口，5A/29）</name>
						<Style>
							<IconStyle>
								<Icon>
									<href>http://maps.google.com/mapfiles/kml/pushpin/ylw-pushpin.png</href>
								</Icon>
								<color>ffffffff</color>
								<scale>1.0</scale>
							</IconStyle>
						</Style>
						<Point>
							<coordinates>117.69989983,40.12889057,0</coordinates>
						</Point>
					</Placemark>
					<Placemark>
						<name>邯郸娲皇宫景区（正门，5A/29）</name>
						<Style>
							<IconStyle>
								<Icon>
									<href>http://maps.google.com/mapfiles/kml/pushpin/ylw-pushpin.png</href>
								</Icon>
								<color>ffffffff</color>
								<scale>1.0</scale>
							</IconStyle>
						</Style>
						<Point>
							<coordinates>113.60216189,36.63367433,0</coordinates>
						</Point>
					</Placemark>
					<Placemark>
						<name>敦化六鼎山文化旅游区（入口，5A/29）</name>
						<Style>
							<IconStyle>
								<Icon>
									<href>http://maps.google.com/mapfiles/kml/pushpin/ylw-pushpin.png</href>
								</Icon>
								<color>ffffffff</color>
								<scale>1.0</scale>
							</IconStyle>
						</Style>
						<Point>
							<coordinates>128.23039707,43.32421456,0</coordinates>
						</Point>
					</Placemark>
					<Placemark>
						<name>淮安周恩来故里旅游景区（正门，5A/29）</name>
						<Style>
							<IconStyle>
								<Icon>
									<href>http://maps.google.com/mapfiles/kml/pushpin/ylw-pushpin.png</href>
								</Icon>
								<color>ffffffff</color>
								<scale>1.0</scale>
							</IconStyle>
						</Style>
						<Point>
							<coordinates>119.14740071,33.51530724,0</coordinates>
						</Point>
					</Placemark>
					<Placemark>
						<name>盐城大丰中华麋鹿园景区（正门，5A/29）</name>
						<Style>
							<IconStyle>
								<Icon>
									<href>http://maps.google.com/mapfiles/kml/pushpin/ylw-pushpin.png</href>
								</Icon>
								<color>ffffffff</color>
								<scale>1.0</scale>
							</IconStyle>
						</Style>
						<Point>
							<coordinates>120.80417302,32.99284622,0</coordinates>
						</Point>
					</Placemark>
					<Placemark>
						<name>台州天台山景区（国清寺，5A/29）</name>
						<Style>
							<IconStyle>
								<Icon>
									<href>http://maps.google.com/mapfiles/kml/pushpin/ylw-pushpin.png</href>
								</Icon>
								<color>ffffffff</color>
								<scale>1.0</scale>
							</IconStyle>
						</Style>
						<Point>
							<coordinates>121.04289574,29.17231475,0</coordinates>
						</Point>
					</Placemark>
					<Placemark>
						<name>台州神仙居景区（正门，5A/29）</name>
						<Style>
							<IconStyle>
								<Icon>
									<href>http://maps.google.com/mapfiles/kml/pushpin/ylw-pushpin.png</href>
								</Icon>
								<color>ffffffff</color>
								<scale>1.0</scale>
							</IconStyle>
						</Style>
						<Point>
							<coordinates>120.60688440,28.70814747,0</coordinates>
						</Point>
					</Placemark>
					<Placemark>
						<name>合肥三河古镇景区（入口，5A/29）</name>
						<Style>
							<IconStyle>
								<Icon>
									<href>http://maps.google.com/mapfiles/kml/pushpin/ylw-pushpin.png</href>
								</Icon>
								<color>ffffffff</color>
								<scale>1.0</scale>
							</IconStyle>
						</Style>
						<Point>
							<coordinates>117.23860398,31.51815153,0</coordinates>
						</Point>
					</Placemark>
					<Placemark>
						<name>龙岩古田旅游区（会议旧址，5A/29）</name>
						<Style>
							<IconStyle>
								<Icon>
									<href>http://maps.google.com/mapfiles/kml/pushpin/ylw-pushpin.png</href>
								</Icon>
								<color>ffffffff</color>
								<scale>1.0</scale>
							</IconStyle>
						</Style>
						<Point>
							<coordinates>116.82138167,25.21968836,0</coordinates>
						</Point>
					</Placemark>
					<Placemark>
						<name>驻马店嵖岈山旅游景区（正门，5A/29）</name>
						<Style>
							<IconStyle>
								<Icon>
									<href>http://maps.google.com/mapfiles/kml/pushpin/ylw-pushpin.png</href>
								</Icon>
								<color>ffffffff</color>
								<scale>1.0</scale>
							</IconStyle>
						</Style>
						<Point>
							<coordinates>113.73018529,33.12277572,0</coordinates>
						</Point>
					</Placemark>
					<Placemark>
						<name>宜春明月山旅游区（正门，5A/29）</name>
						<Style>
							<IconStyle>
								<Icon>
									<href>http://maps.google.com/mapfiles/kml/pushpin/ylw-pushpin.png</href>
								</Icon>
								<color>ffffffff</color>
								<scale>1.0</scale>
							</IconStyle>
						</Style>
						<Point>
							<coordinates>114.25676238,27.60572548,0</coordinates>
						</Point>
					</Placemark>
					<Placemark>
						<name>江津四面山景区（正门，5A/29）</name>
						<Style>
							<IconStyle>
								<Icon>
									<href>http://maps.google.com/mapfiles/kml/pushpin/ylw-pushpin.png</href>
								</Icon>
								<color>ffffffff</color>
								<scale>1.0</scale>
							</IconStyle>
						</Style>
						<Point>
							<coordinates>106.40839066,28.65088897,0</coordinates>
						</Point>
					</Placemark>
					<Placemark>
						<name>阳江海陵岛大角湾海上丝路旅游区（入口，5A/29）</name>
						<Style>
							<IconStyle>
								<Icon>
									<href>http://maps.google.com/mapfiles/kml/pushpin/ylw-pushpin.png</href>
								</Icon>
								<color>ffffffff</color>
								<scale>1.0</scale>
							</IconStyle>
						</Style>
						<Point>
							<coordinates>111.83689394,21.57084347,0</coordinates>
						</Point>
					</Placemark>
					<Placemark>
						<name>商洛金丝峡景区（正门，5A/29）</name>
						<Style>
							<IconStyle>
								<Icon>
									<href>http://maps.google.com/mapfiles/kml/pushpin/ylw-pushpin.png</href>
								</Icon>
								<color>ffffffff</color>
								<scale>1.0</scale>
							</IconStyle>
						</Style>
						<Point>
							<coordinates>110.56099021,33.35675339,0</coordinates>
						</Point>
					</Placemark>
				</Folder>
			</Folder>
			<Folder>
				<name>第30~31批15家（2016年）</name>
				<Folder>
					<name>第30批6家</name>
					<Placemark>
						<name>芜湖方特旅游区（欢乐世界入口，5A/30）</name>
						<Style>
							<IconStyle>
								<Icon>
									<href>http://maps.google.com/mapfiles/kml/pushpin/ylw-pushpin.png</href>
								</Icon>
								<color>ffffffff</color>
								<scale>1.0</scale>
							</IconStyle>
						</Style>
						<Point>
							<coordinates>118.37102176,31.37839789,0</coordinates>
						</Point>
					</Placemark>
					<Placemark>
						<name>徐州云龙湖景区（入口，5A/30）</name>
						<Style>
							<IconStyle>
								<Icon>
									<href>http://maps.google.com/mapfiles/kml/pushpin/ylw-pushpin.png</href>
								</Icon>
								<color>ffffffff</color>
								<scale>1.0</scale>
							</IconStyle>
						</Style>
						<Point>
							<coordinates>117.17140182,34.24632787,0</coordinates>
						</Point>
					</Placemark>
					<Placemark>
						<name>连云港花果山景区（山门，5A/30）</name>
						<Style>
							<IconStyle>
								<Icon>
									<href>http://maps.google.com/mapfiles/kml/pushpin/ylw-pushpin.png</href>
								</Icon>
								<color>ffffffff</color>
								<scale>1.0</scale>
							</IconStyle>
						</Style>
						<Point>
							<coordinates>119.26818317,34.64200669,0</coordinates>
						</Point>
					</Placemark>
					<Placemark>
						<name>邵阳新宁县崀山景区（天一巷景区口，5A/30）</name>
						<Style>
							<IconStyle>
								<Icon>
									<href>http://maps.google.com/mapfiles/kml/pushpin/ylw-pushpin.png</href>
								</Icon>
								<color>ffffffff</color>
								<scale>1.0</scale>
							</IconStyle>
						</Style>
						<Point>
							<coordinates>110.80179203,26.35566054,0</coordinates>
						</Point>
					</Placemark>
					<Placemark>
						<name>昆明世博园景区（正门，5A/30）</name>
						<Style>
							<IconStyle>
								<Icon>
									<href>http://maps.google.com/mapfiles/kml/pushpin/ylw-pushpin.png</href>
								</Icon>
								<color>ffffffff</color>
								<scale>1.0</scale>
							</IconStyle>
						</Style>
						<Point>
							<coordinates>102.75423072,25.07423780,0</coordinates>
						</Point>
					</Placemark>
					<Placemark>
						<name>保山腾冲县火山热海旅游区（正门，5A/30）</name>
						<Style>
							<IconStyle>
								<Icon>
									<href>http://maps.google.com/mapfiles/kml/pushpin/ylw-pushpin.png</href>
								</Icon>
								<color>ffffffff</color>
								<scale>1.0</scale>
							</IconStyle>
						</Style>
						<Point>
							<coordinates>98.44183409,24.94888742,0</coordinates>
						</Point>
					</Placemark>
				</Folder>
				<Folder>
					<name>第31批9家</name>
					<Placemark>
						<name>满洲里中俄边境旅游区（正门，5A/31）</name>
						<Style>
							<IconStyle>
								<Icon>
									<href>http://maps.google.com/mapfiles/kml/pushpin/ylw-pushpin.png</href>
								</Icon>
								<color>ffffffff</color>
								<scale>1.0</scale>
							</IconStyle>
						</Style>
						<Point>
							<coordinates>117.34905692,49.62564578,0</coordinates>
						</Point>
					</Placemark>
					<Placemark>
						<name>六安万佛湖景区（正门，5A/31）</name>
						<Style>
							<IconStyle>
								<Icon>
									<href>http://maps.google.com/mapfiles/kml/pushpin/ylw-pushpin.png</href>
								</Icon>
								<color>ffffffff</color>
								<scale>1.0</scale>
							</IconStyle>
						</Style>
						<Point>
							<coordinates>116.76223474,31.30937682,0</coordinates>
						</Point>
					</Placemark>
					<Placemark>
						<name>安阳红旗渠-太行大峡谷旅游景区（大峡谷入口，5A/31）</name>
						<Style>
							<IconStyle>
								<Icon>
									<href>http://maps.google.com/mapfiles/kml/pushpin/ylw-pushpin.png</href>
								</Icon>
								<color>ffffffff</color>
								<scale>1.0</scale>
							</IconStyle>
						</Style>
						<Point>
							<coordinates>113.75413950,36.15045919,0</coordinates>
						</Point>
					</Placemark>
					<Placemark>
						<name>中山市孙中山故里旅游区（故居，5A/31）</name>
						<Style>
							<IconStyle>
								<Icon>
									<href>http://maps.google.com/mapfiles/kml/pushpin/ylw-pushpin.png</href>
								</Icon>
								<color>ffffffff</color>
								<scale>1.0</scale>
							</IconStyle>
						</Style>
						<Point>
							<coordinates>113.52303487,22.44499727,0</coordinates>
						</Point>
					</Placemark>
					<Placemark>
						<name>三亚蜈支洲岛旅游区（码头，5A/31）</name>
						<Style>
							<IconStyle>
								<Icon>
									<href>http://maps.google.com/mapfiles/kml/pushpin/ylw-pushpin.png</href>
								</Icon>
								<color>ffffffff</color>
								<scale>1.0</scale>
							</IconStyle>
						</Style>
						<Point>
							<coordinates>109.75932652,18.31577290,0</coordinates>
						</Point>
					</Placemark>
					<Placemark>
						<name>宝鸡太白山旅游景区（正门，5A/31）</name>
						<Style>
							<IconStyle>
								<Icon>
									<href>http://maps.google.com/mapfiles/kml/pushpin/ylw-pushpin.png</href>
								</Icon>
								<color>ffffffff</color>
								<scale>1.0</scale>
							</IconStyle>
						</Style>
						<Point>
							<coordinates>107.89200714,34.12365583,0</coordinates>
						</Point>
					</Placemark>
					<Placemark>
						<name>南充仪陇朱德故里景区（正门，5A/31）</name>
						<Style>
							<IconStyle>
								<Icon>
									<href>http://maps.google.com/mapfiles/kml/pushpin/ylw-pushpin.png</href>
								</Icon>
								<color>ffffffff</color>
								<scale>1.0</scale>
							</IconStyle>
						</Style>
						<Point>
							<coordinates>106.61212884,31.47171304,0</coordinates>
						</Point>
					</Placemark>
					<Placemark>
						<name>伊犁州喀拉峻景区（主入口，5A/31）</name>
						<Style>
							<IconStyle>
								<Icon>
									<href>http://maps.google.com/mapfiles/kml/pushpin/ylw-pushpin.png</href>
								</Icon>
								<color>ffffffff</color>
								<scale>1.0</scale>
							</IconStyle>
						</Style>
						<Point>
							<coordinates>81.90347927,43.12456376,0</coordinates>
						</Point>
					</Placemark>
					<Placemark>
						<name>巴音州和静巴音布鲁克景区（主入口，5A/31）</name>
						<Style>
							<IconStyle>
								<Icon>
									<href>http://maps.google.com/mapfiles/kml/pushpin/ylw-pushpin.png</href>
								</Icon>
								<color>ffffffff</color>
								<scale>1.0</scale>
							</IconStyle>
						</Style>
						<Point>
							<coordinates>84.13218719,43.01397349,0</coordinates>
						</Point>
					</Placemark>
				</Folder>
			</Folder>
			<Folder>
				<name>第32~33批22家（2017年）</name>
				<Folder>
					<name>第32批20家</name>
					<Placemark>
						<name>邯郸广府古城景区（主入口，5A/32）</name>
						<Style>
							<IconStyle>
								<Icon>
									<href>http://maps.google.com/mapfiles/kml/pushpin/ylw-pushpin.png</href>
								</Icon>
								<color>ffffffff</color>
								<scale>1.0</scale>
							</IconStyle>
						</Style>
						<Point>
							<coordinates>114.72348031,36.69442852,0</coordinates>
						</Point>
					</Placemark>
					<Placemark>
						<name>保定白石山景区（正门，5A/32）</name>
						<Style>
							<IconStyle>
								<Icon>
									<href>http://maps.google.com/mapfiles/kml/pushpin/ylw-pushpin.png</href>
								</Icon>
								<color>ffffffff</color>
								<scale>1.0</scale>
							</IconStyle>
						</Style>
						<Point>
							<coordinates>114.68788301,39.27989684,0</coordinates>
						</Point>
					</Placemark>
					<Placemark>
						<name>忻州雁门关景区（主入口，5A/32）</name>
						<Style>
							<IconStyle>
								<Icon>
									<href>http://maps.google.com/mapfiles/kml/pushpin/ylw-pushpin.png</href>
								</Icon>
								<color>ffffffff</color>
								<scale>1.0</scale>
							</IconStyle>
						</Style>
						<Point>
							<coordinates>112.84529037,39.19171950,0</coordinates>
						</Point>
					</Placemark>
					<Placemark>
						<name>兴安盟阿尔山·柴河旅游景区（景中，5A/32）</name>
						<Style>
							<IconStyle>
								<Icon>
									<href>http://maps.google.com/mapfiles/kml/pushpin/ylw-pushpin.png</href>
								</Icon>
								<color>ffffffff</color>
								<scale>1.0</scale>
							</IconStyle>
						</Style>
						<Point>
							<coordinates>120.45696471,47.29199719,0</coordinates>
						</Point>
					</Placemark>
					<Placemark>
						<name>鞍山千山景区（正门，5A/32）</name>
						<Style>
							<IconStyle>
								<Icon>
									<href>http://maps.google.com/mapfiles/kml/pushpin/ylw-pushpin.png</href>
								</Icon>
								<color>ffffffff</color>
								<scale>1.0</scale>
							</IconStyle>
						</Style>
						<Point>
							<coordinates>123.13660486,41.02691954,0</coordinates>
						</Point>
					</Placemark>
					<Placemark>
						<name>长春世界雕塑公园景区（正门，5A/32）</name>
						<Style>
							<IconStyle>
								<Icon>
									<href>http://maps.google.com/mapfiles/kml/pushpin/ylw-pushpin.png</href>
								</Icon>
								<color>ffffffff</color>
								<scale>1.0</scale>
							</IconStyle>
						</Style>
						<Point>
							<coordinates>125.32042154,43.82063885,0</coordinates>
						</Point>
					</Placemark>
					<Placemark>
						<name>常州春秋淹城旅游区（正门，5A/32）</name>
						<Style>
							<IconStyle>
								<Icon>
									<href>http://maps.google.com/mapfiles/kml/pushpin/ylw-pushpin.png</href>
								</Icon>
								<color>ffffffff</color>
								<scale>1.0</scale>
							</IconStyle>
						</Style>
						<Point>
							<coordinates>119.92517842,31.70584269,0</coordinates>
						</Point>
					</Placemark>
					<Placemark>
						<name>嘉兴西塘古镇旅游景区（主入口，5A/32）</name>
						<Style>
							<IconStyle>
								<Icon>
									<href>http://maps.google.com/mapfiles/kml/pushpin/ylw-pushpin.png</href>
								</Icon>
								<color>ffffffff</color>
								<scale>1.0</scale>
							</IconStyle>
						</Style>
						<Point>
							<coordinates>120.88438129,30.94225863,0</coordinates>
						</Point>
					</Placemark>
					<Placemark>
						<name>衢州江郎山.廿八都旅游区（主入口，5A/32）</name>
						<Style>
							<IconStyle>
								<Icon>
									<href>http://maps.google.com/mapfiles/kml/pushpin/ylw-pushpin.png</href>
								</Icon>
								<color>ffffffff</color>
								<scale>1.0</scale>
							</IconStyle>
						</Style>
						<Point>
							<coordinates>118.48029361,28.29639503,0</coordinates>
						</Point>
					</Placemark>
					<Placemark>
						<name>抚州大觉山景区（正门，5A/32）</name>
						<Style>
							<IconStyle>
								<Icon>
									<href>http://maps.google.com/mapfiles/kml/pushpin/ylw-pushpin.png</href>
								</Icon>
								<color>ffffffff</color>
								<scale>1.0</scale>
							</IconStyle>
						</Style>
						<Point>
							<coordinates>117.13816969,27.69930349,0</coordinates>
						</Point>
					</Placemark>
					<Placemark>
						<name>上饶龟峰景区（正门，5A/32）</name>
						<Style>
							<IconStyle>
								<Icon>
									<href>http://maps.google.com/mapfiles/kml/pushpin/ylw-pushpin.png</href>
								</Icon>
								<color>ffffffff</color>
								<scale>1.0</scale>
							</IconStyle>
						</Style>
						<Point>
							<coordinates>117.39426475,28.32156949,0</coordinates>
						</Point>
					</Placemark>
					<Placemark>
						<name>青州古城景区（南门，5A/32）</name>
						<Style>
							<IconStyle>
								<Icon>
									<href>http://maps.google.com/mapfiles/kml/pushpin/ylw-pushpin.png</href>
								</Icon>
								<color>ffffffff</color>
								<scale>1.0</scale>
							</IconStyle>
						</Style>
						<Point>
							<coordinates>118.47072663,36.67145755,0</coordinates>
						</Point>
					</Placemark>
					<Placemark>
						<name>威海华夏城景区（正门，5A/32）</name>
						<Style>
							<IconStyle>
								<Icon>
									<href>http://maps.google.com/mapfiles/kml/pushpin/ylw-pushpin.png</href>
								</Icon>
								<color>ffffffff</color>
								<scale>1.0</scale>
							</IconStyle>
						</Style>
						<Point>
							<coordinates>122.11816231,37.42329695,0</coordinates>
						</Point>
					</Placemark>
					<Placemark>
						<name>永城芒砀山汉文化旅游景区（梁王陵，5A/32）</name>
						<Style>
							<IconStyle>
								<Icon>
									<href>http://maps.google.com/mapfiles/kml/pushpin/ylw-pushpin.png</href>
								</Icon>
								<color>ffffffff</color>
								<scale>1.0</scale>
							</IconStyle>
						</Style>
						<Point>
							<coordinates>116.51027835,34.17040589,0</coordinates>
						</Point>
					</Placemark>
					<Placemark>
						<name>桂林两江四湖·象山景区（象山入口，5A/32）</name>
						<Style>
							<IconStyle>
								<Icon>
									<href>http://maps.google.com/mapfiles/kml/pushpin/ylw-pushpin.png</href>
								</Icon>
								<color>ffffffff</color>
								<scale>1.0</scale>
							</IconStyle>
						</Style>
						<Point>
							<coordinates>110.28942314,25.26992991,0</coordinates>
						</Point>
					</Placemark>